"","dbn","school_name","num.of.sat.test.takers","avg_sat_score","ap.test.takers","total.exams.taken","exams_per_student","high_score_percent","avg_class_size","frl_percent","total_enrollment","ell_percent","sped_percent","selfcontained_num","asian_per","black_per","hispanic_per","white_per","male_per","female_per","total.cohort","grads_percent","dropout_percent","boro","lat","long","d75","saf_p_11","com_p_11","eng_p_11","aca_p_11","saf_t_11","com_t_11","eng_t_11","aca_t_11","saf_s_11","com_s_11","eng_s_11","aca_s_11","saf_tot_11","com_tot_11","eng_tot_11","aca_tot_11"
"1","01M292","HENRY STREET SCHOOL FOR INTERNATIONAL STUDIES",29,1122,2.5,NA,NA,NA,23,88.6,422,22.3,24.9,35,14,29.1,53.8,1.7,61.4,38.6,78,55.1,14.1,"Manhattan",40.7137639470004,-73.9852600399997,NA,NA,NA,NA,NA,NA,NA,NA,NA,NA,NA,NA,NA,NA,NA,NA,NA
"2","01M448","UNIVERSITY NEIGHBORHOOD HIGH SCHOOL",91,1172,39,49,1.25641025641026,20.4081632653061,22,71.8,394,21.1,21.8,10,29.2,22.6,45.9,2.3,57.4,42.6,124,42.7,16.1,"Manhattan",40.712331851,-73.9847966249997,0,7.9,7.4,7.2,7.3,6.6,5.8,6.6,7.3,6,5.7,6.3,7,6.8,6.3,6.7,7.2
"3","01M450","EAST SIDE COMMUNITY SCHOOL",70,1149,19,21,1.10526315789474,NA,21,71.8,598,5,26.4,19,9.7,23.9,55.4,10.4,54.7,45.3,90,77.8,5.6,"Manhattan",40.7297826870005,-73.9830414409997,NA,NA,NA,NA,NA,NA,NA,NA,NA,NA,NA,NA,NA,NA,NA,NA,NA
"4","01M458","FORSYTH SATELLITE ACADEMY",7,1174,2.5,NA,NA,NA,23,72.8,224,4,8.9,0,2.2,34.4,59.4,3.6,43.3,56.7,NA,NA,NA,NA,NA,NA,0,8.1,7,6.7,7.6,8.5,8.2,8.9,8.9,6.8,6.1,6.1,6.8,7.8,7.1,7.2,7.8
"5","01M509","MARTA VALLE HIGH SCHOOL",44,1207,2.5,NA,NA,NA,24,80.7,367,11.2,25.9,36,9.3,31.6,56.9,1.6,46.3,53.7,84,56,6,"Manhattan",40.7205690790005,-73.9856726909996,0,7.7,7.4,7.2,7.3,6.4,5.3,6.1,6.8,6.4,5.9,6.4,7,6.9,6.2,6.6,7
"6","01M515","LOWER EAST SIDE PREPARATORY HIGH SCHOOL",112,1205,24,26,1.08333333333333,92.3076923076923,23,NA,NA,NA,NA,NA,NA,NA,NA,NA,NA,NA,193,54.4,18.1,NA,NA,NA,0,8.3,7.2,7.4,7.5,9.1,7.3,8.7,9.1,8,6.3,7,7.3,8.5,7,7.7,8
"7","01M539","NEW EXPLORATIONS INTO SCIENCE, TECHNOLOGY AND MATH HIGH SCHOOL",159,1621,255,377,1.47843137254902,50.6631299734748,26,23,1613,0.2,2.7,0,27.8,11.7,14.2,44.9,49.2,50.8,46,100,0,"Manhattan",40.7187254510005,-73.9794263859997,NA,NA,NA,NA,NA,NA,NA,NA,NA,NA,NA,NA,NA,NA,NA,NA,NA
"8","01M650","CASCADES HIGH SCHOOL",18,1246,2.5,NA,NA,NA,22,69.8,218,3.2,6.9,0,0.5,45.4,49.5,4.1,39.9,60.1,89,55.1,6.7,NA,NA,NA,0,9,8.4,8.1,8.6,7.6,7.5,8.3,8.7,8.1,6.9,7.9,8.4,8.3,7.6,8.1,8.6
"9","01M696","BARD HIGH SCHOOL EARLY COLLEGE",130,1856,2.5,NA,NA,NA,21,18,617,0.2,0.8,0,15.1,15.1,18.2,49.8,31.3,68.7,139,96.4,0.7,"Manhattan",40.7189616170004,-73.9760660209997,0,8.8,8.2,8.3,9.1,8.2,7.4,7.5,8.3,8.3,7.3,8,8.9,8.5,7.6,8,8.7
"10","02M047","47 THE AMERICAN SIGN LANGUAGE AND ENGLISH SECONDARY SCHOOL",16,1182,2.5,NA,NA,NA,16,66.9,174,8,32.2,10,1.7,32.2,59.2,6.3,42.5,57.5,25,76,4,"Manhattan",40.7385990870005,-73.9825119109997,0,8.9,7.7,7.9,8.1,8.1,6.1,7.7,7.2,7.3,6.3,7,7.5,8.1,6.7,7.5,7.6
"11","02M288","FOOD AND FINANCE HIGH SCHOOL",62,1194,2.5,NA,NA,NA,23,68.4,433,2.1,18.5,4,3,44.1,47.6,4.8,45,55,102,89.2,2.9,"Manhattan",40.7650267080004,-73.9925165779997,0,7.6,7,6.9,7.6,7.3,7.1,7.8,7.7,6.2,5.7,6.1,7.2,7,6.6,6.9,7.5
"12","02M294","ESSEX STREET ACADEMY",53,1156,2.5,NA,NA,NA,15,60.8,343,3.8,20.4,2,4.1,27.7,60.6,7.6,53.4,46.6,89,71.9,10.1,"Manhattan",40.7168672240004,-73.9895319429996,0,8.7,8.1,7.9,8.3,8,7.7,7.9,8.9,7.4,6.5,7.3,7.6,7.9,7.3,7.7,8.2
"13","02M296","HIGH SCHOOL OF HOSPITALITY MANAGEMENT",58,1111,2.5,NA,NA,NA,23,72.4,419,9.5,14.8,17,5.3,26.5,66.1,2.1,32.2,67.8,75,77.3,6.7,"Manhattan",40.7650267080004,-73.9925165779997,0,8,7.3,7.1,7.5,8.6,8.1,8.7,8.9,7.1,6.5,7,7.4,7.9,7.3,7.6,8
"14","02M298","PACE HIGH SCHOOL",85,1293,21,21,1,NA,21,56.7,414,2.2,13.8,3,10.1,32.4,42,3.9,43.7,56.3,92,84.8,4.3,"Manhattan",40.7164123930005,-73.9926758439997,0,7.5,7.1,6.9,7.5,6.6,6.3,6.8,7.1,6.6,6.2,6.7,7.5,6.9,6.6,6.8,7.4
"15","02M300","URBAN ASSEMBLY SCHOOL OF DESIGN AND CONSTRUCTION, THE",48,1269,99,117,1.18181818181818,8.54700854700855,23,75.3,431,10.9,20,12,6,29.2,59.2,4.9,74.9,25.1,80,61.3,8.8,"Manhattan",40.7650267080004,-73.9925165779997,0,8.6,7.9,7.7,8.1,7.3,6,6.9,7.5,6.5,5.7,6.1,7.2,7.5,6.5,6.9,7.6
"16","02M303","FACING HISTORY SCHOOL, THE",76,1051,42,44,1.04761904761905,NA,22,75.6,451,20.8,21.7,9,0.7,23.5,73.2,2.4,50.6,49.4,71,47.9,19.7,"Manhattan",40.7650267080004,-73.9925165779997,0,8.2,7.8,7.6,8,7.4,7.4,7.7,7.9,7,6.6,6.8,7.4,7.5,7.3,7.3,7.8
"17","02M305","URBAN ASSEMBLY ACADEMY OF GOVERNMENT AND LAW, THE",50,1148,25,37,1.48,40.5405405405405,21,68.3,312,6.1,17,5,3.8,41.7,50.6,3.5,43.9,56.1,61,75.4,16.4,"Manhattan",40.7168672240004,-73.9895319429996,0,7.5,7.4,7.3,7.7,5.4,4.3,5.8,6,6,6,6,7.2,6.1,5.6,6.2,6.8
"18","02M308","LOWER MANHATTAN ARTS ACADEMY",40,1200,2.5,NA,NA,NA,23,62.2,336,3.9,24.7,3,9.5,30.7,55.7,3.6,39.9,60.1,68,67.6,8.8,"Manhattan",40.7168672240004,-73.9895319429996,0,7.8,7.4,7.3,7.4,7.4,7.5,7.7,8,6.6,5.8,6.7,7.3,7.3,6.9,7.2,7.6
"19","02M313","JAMES BALDWIN SCHOOL, THE: A SCHOOL FOR EXPEDITIONARY LEARNING",69,1188,2.5,NA,NA,NA,22,51,248,4.8,12.9,1,4,34.3,54.4,6.5,52.4,47.6,79,51.9,15.2,NA,NA,NA,0,8.5,8,7.8,7.9,7.5,7.5,7.9,8.3,7.6,7.4,7.4,8.2,7.9,7.6,7.7,8.1
"20","02M316","URBAN ASSEMBLY SCHOOL OF BUSINESS FOR YOUNG WOMEN, THE",42,1127,2.5,NA,NA,NA,26,74.9,378,2.6,15.6,2,3.4,46.8,48.4,1.3,0,100,72,73.6,5.6,"Manhattan",40.7052349390004,-74.0133150399997,0,8.4,7.6,7.5,7.9,7,6.2,6.5,7.4,6.8,6.4,6.7,7.6,7.4,6.7,6.9,7.6
"21","02M374","GRAMERCY ARTS HIGH SCHOOL",60,1176,2.5,NA,NA,NA,27,59,495,3,12.3,0,2.8,45.3,45.1,6.7,26.3,73.7,93,73.1,7.5,"Manhattan",40.7355194630004,-73.9876042489997,0,8.2,7.6,7.7,8.1,6.4,5.5,6.7,6.7,6.1,6,6.3,7.2,6.9,6.4,6.9,7.4
"22","02M376","NYC ISCHOOL",92,1435,2.5,NA,NA,NA,37,34.6,433,0.5,10.9,1,11.5,20.6,43,24,48.7,51.3,NA,NA,NA,"Manhattan",40.7243528740004,-74.0047592919997,0,8.6,8.3,7.8,8,7.7,6.5,6.8,7.4,7.8,7,7.6,8.1,8,7.3,7.4,7.9
"23","02M392","MANHATTAN BUSINESS ACADEMY",NA,NA,2.5,NA,NA,NA,25,64,332,9.9,13.9,2,6.6,29.5,58.7,4.8,59,41,NA,NA,NA,"Manhattan",40.7428881010004,-74.0021273809996,0,8.3,8,7.6,8.2,7.4,7.5,7.5,8.2,6.9,6.4,6.8,7.5,7.5,7.3,7.3,8
"24","02M393","BUSINESS OF SPORTS SCHOOL",NA,NA,2.5,NA,NA,NA,22,58.7,304,7.6,21.4,4,1.6,35.5,57.2,4.3,72.4,27.6,NA,NA,NA,"Manhattan",40.7633617320005,-73.9905090909996,0,8.1,7.6,7.5,7.9,6.2,5.8,6.6,7,6.2,6.1,6.3,7,6.8,6.5,6.8,7.3
"25","02M394","EMMA LAZARUS HIGH SCHOOL",79,1188,2.5,NA,NA,NA,25,97,250,82.8,0,NA,62.4,7.2,26.4,4,51.2,48.8,10,NA,NA,NA,NA,NA,0,8.9,7.8,7.6,8,8.2,6,7.2,7.8,8.2,7.1,7.3,8,8.4,7,7.4,7.9
"26","02M399","THE HIGH SCHOOL FOR LANGUAGE AND DIPLOMACY",NA,NA,2.5,NA,NA,NA,18,80.8,244,28.3,16.8,15,44.3,15.6,32.8,5.3,48,52,NA,NA,NA,"Manhattan",40.7355194630004,-73.9876042489997,0,8.1,7.3,7.1,7.3,6.3,3.2,4.1,5,6.6,5.7,6.3,6.9,7,5.4,5.8,6.4
"27","02M400","HIGH SCHOOL FOR ENVIRONMENTAL STUDIES",263,1419,213,298,1.39906103286385,51.006711409396,31,56.4,1394,7.1,14.4,47,16.7,14.8,57.2,11.1,50.4,49.6,352,74.4,6.3,"Manhattan",40.7677624390004,-73.9875112139997,0,8.3,7.6,7.6,7.7,7.3,6.4,7.1,7.4,7.1,6.2,7,7.8,7.6,6.7,7.2,7.6
"28","02M407","INSTITUTE FOR COLLABORATIVE EDUCATION",54,1424,2.5,NA,NA,NA,NA,17.9,489,0.4,8.8,2,6.3,10.2,17.6,54.6,55.2,44.8,55,76.4,3.6,"Manhattan",40.7324853780004,-73.9830533879996,NA,NA,NA,NA,NA,NA,NA,NA,NA,NA,NA,NA,NA,NA,NA,NA,NA
"29","02M408","PROFESSIONAL PERFORMING ARTS HIGH SCHOOL",94,1522,20,20,1,75,29,23.5,502,2,3.2,0,7,19.1,23.7,41.8,25.3,74.7,80,92.5,0,"Manhattan",40.7614326990005,-73.9880236979997,NA,NA,NA,NA,NA,NA,NA,NA,NA,NA,NA,NA,NA,NA,NA,NA,NA
"30","02M411","BARUCH COLLEGE CAMPUS HIGH SCHOOL",104,1577,78,115,1.47435897435897,76.5217391304348,27,54.6,432,1.6,2.3,0,60.6,5.8,14.6,18.8,44,56,105,98.1,0,"Manhattan",40.7440472480004,-73.9914792989996,0,8.4,7.1,7.1,7.6,8,5.1,6,7.6,7.8,7,7,7.8,8.1,6.4,6.7,7.6
"31","02M412","N.Y.C. LAB SCHOOL FOR COLLABORATIVE STUDIES",114,1677,114,140,1.2280701754386,69.2857142857143,33,21.6,579,1.6,15,0,29.4,8.5,14,45.9,47,53,124,91.1,1.6,"Manhattan",40.7421007130004,-74.0020737969996,0,8.4,8.2,7.9,8.1,7.8,7.7,7.5,8.3,7.5,6.9,7,7.7,7.9,7.6,7.5,8
"32","02M413","SCHOOL OF THE FUTURE HIGH SCHOOL",66,1565,11,11,1,NA,NA,31,673,2.1,14.6,0,16,12.3,26,38,50.8,49.2,95,64.2,2.1,"Manhattan",40.7389488860004,-73.9854051719997,NA,NA,NA,NA,NA,NA,NA,NA,NA,NA,NA,NA,NA,NA,NA,NA,NA
"33","02M414","N.Y.C. MUSEUM SCHOOL",103,1419,2.5,NA,NA,NA,28,51.6,436,0.5,9.4,0,33,11.7,39.9,15.4,42.4,57.6,106,94.3,1.9,"Manhattan",40.7421007130004,-74.0020737969996,0,8,6.7,6.8,7,6.8,4.7,4.9,5.7,7.1,6.1,6.7,7.4,7.3,5.8,6.1,6.7
"34","02M416","ELEANOR ROOSEVELT HIGH SCHOOL",127,1758,155,235,1.51612903225806,71.9148936170213,27,15.8,507,0.2,1.2,0,17.2,5.5,11.6,63.7,32.5,67.5,127,100,0,"Manhattan",40.7701164710004,-73.9533791009997,0,9,8,8,8.5,8.2,7.1,7.9,8.6,8.1,7,7.4,8.2,8.5,7.4,7.8,8.4
"35","02M418","MILLENNIUM HIGH SCHOOL",144,1614,86,95,1.1046511627907,70.5263157894737,29,32.7,626,0.2,9.1,0,30,8.8,21.7,35.9,38.2,61.8,150,96.7,0,"Manhattan",40.7049203660005,-74.0115140229997,0,8.7,7.6,7.7,8,8.6,6.6,7.4,8.3,7.5,6.9,6.8,7.9,8.3,7,7.3,8.1
"36","02M419","LANDMARK HIGH SCHOOL",62,1170,2.5,NA,NA,NA,23,83.1,421,15.7,18.8,7,5.2,18.1,74.8,1.9,48.5,51.5,94,61.7,13.8,"Manhattan",40.7428881010004,-74.0021273809996,0,8,6.9,6.7,7.3,7.2,5.4,7.1,7,6.7,6.2,6.2,7,7.3,6.2,6.7,7.1
"37","02M420","HIGH SCHOOL FOR HEALTH PROFESSIONS AND HUMAN SERVICES",336,1306,204,248,1.2156862745098,30.241935483871,32,68,1768,4,10.9,12,20.5,24.4,49.7,5.3,29.4,70.6,341,82.1,0.6,"Manhattan",40.7324853780004,-73.9830533879996,0,7.6,7,7,7.3,7.7,7.2,7.6,7.9,6.5,5.5,6.1,7.1,7.3,6.6,6.9,7.4
"38","02M425","LEADERSHIP AND PUBLIC SERVICE HIGH SCHOOL",84,1233,70,84,1.2,38.0952380952381,28,74.2,607,5.4,18.6,45,8.1,30.5,54.2,6.6,46.1,53.9,144,54.2,16,"Manhattan",40.7091465390004,-74.0120766269997,0,7.7,7.1,7,7,6.8,6.6,6.7,7.3,6.1,5.4,6.1,6.9,6.7,6.2,6.5,7.1
"39","02M427","MANHATTAN ACADEMY FOR ARTS & LANGUAGE",NA,NA,2.5,NA,NA,NA,23,97.5,175,86.9,6.9,2,6.3,8,84.6,1.1,54.9,45.1,NA,NA,NA,"Manhattan",40.7461063750005,-73.9810096669996,0,9,8.6,8.1,8.3,9,9,9.7,9.6,7.7,6,7.3,7.6,8.6,7.8,8.4,8.5
"40","02M429","LEGACY SCHOOL FOR INTEGRATED STUDIES",29,1062,22,26,1.18181818181818,NA,20,93.9,294,8.2,22.4,20,1.4,45.2,51.4,1.7,49,51,73,47.9,6.8,NA,NA,NA,0,7.5,7.3,7.1,7,7,6.5,6.9,7.2,6.1,5.8,6,7,6.9,6.5,6.7,7.1
"41","02M437","HUDSON HIGH SCHOOL OF LEARNING TECHNOLOGIES",NA,NA,2.5,NA,NA,NA,28,61.5,226,8.8,16.4,10,5.8,23.5,62.4,6.6,60.6,39.4,NA,NA,NA,"Manhattan",40.7428881010004,-74.0021273809996,0,8.7,7.6,7.4,7.7,8.7,8.9,9.4,9.4,7,7,6.9,7.5,8.1,7.8,7.9,8.2
"42","02M438","INTERNATIONAL HIGH SCHOOL AT UNION SQUARE",NA,NA,2.5,NA,NA,NA,24,82.8,176,94.9,0.6,0,40.3,12.5,43.2,3.4,61.4,38.6,NA,NA,NA,"Manhattan",40.7355194630004,-73.9876042489997,0,8.8,7.6,7.4,8.1,8.1,7.9,8.1,8.3,7.5,6.8,7.3,7.3,8.1,7.4,7.6,7.9
"43","02M439","MANHATTAN VILLAGE ACADEMY",95,1372,42,69,1.64285714285714,42.0289855072464,21,60.3,429,3.7,8.2,2,6.3,16.8,71.8,4.9,38.5,61.5,110,98.2,0,"Manhattan",40.741494699,-73.9914450529997,0,9.5,8.9,8.3,9,8.7,7.3,7.3,8.6,7.6,6.4,6.9,7.9,8.6,7.5,7.5,8.5
"44","02M440","BAYARD RUSTIN EDUCATIONAL COMPLEX",59,1111,6,6,1,NA,26,75.5,208,26,13.5,9,6.3,27.9,62.5,2.4,63.9,36.1,365,38.1,18.6,NA,NA,NA,0,7.5,6.8,6.4,6.9,6.3,7.4,7.3,7.6,5.9,5.1,5.7,6.1,6.6,6.4,6.5,6.9
"45","02M449","VANGUARD HIGH SCHOOL",72,1199,2.5,NA,NA,NA,19,69.5,444,6.1,17.3,7,9.9,25.7,59,4.5,46.2,53.8,89,44.9,3.4,"Manhattan",40.7654454020005,-73.9602137859997,0,8.4,7.9,7.5,7.9,7.8,7.9,8.4,8.4,7,6.4,6.7,7.5,7.7,7.4,7.6,7.9
"46","02M459","MANHATTAN INTERNATIONAL HIGH SCHOOL",49,1227,12,12,1,50,20,80.7,325,77.5,0.3,0,33.5,14.8,36.9,14.5,44.3,55.7,69,55.1,7.2,"Manhattan",40.7654454020005,-73.9602137859997,0,8.8,7.8,7.4,7.9,7.7,6.5,7.4,7.7,7.8,6.8,6.9,7.6,8.1,7,7.3,7.7
"47","02M460","WASHINGTON IRVING HIGH SCHOOL",151,1120,69,83,1.20289855072464,25.3012048192771,24,66,1032,18.6,17.2,80,4.8,34.3,58.2,2.3,47.5,52.5,443,51.9,26.6,NA,NA,NA,0,7.8,8,7.9,8,6.6,6.4,7.1,7.4,6,5.7,6.1,6.9,6.8,6.7,7,7.5
"48","02M473","WASHINGTON IRVING YABC",NA,NA,2.5,NA,NA,NA,NA,NA,NA,NA,NA,NA,NA,NA,NA,NA,NA,NA,NA,NA,NA,NA,NA,NA,NA,NA,NA,NA,NA,NA,NA,NA,NA,NA,NA,NA,NA,NA,NA,NA,NA
"49","02M475","STUYVESANT HIGH SCHOOL",832,2096,1510,2819,1.86688741721854,93.934019155729,31,30.3,3297,0,0.4,0,72.1,1.2,2.4,23.7,59.3,40.7,787,98.3,0.4,"Manhattan",40.7177464150004,-74.0140490429997,0,8.4,7.5,7.7,7.7,7.2,5.6,6.1,7.2,7.5,6.2,7,7.9,7.7,6.4,6.9,7.6
"50","02M489","HIGH SCHOOL OF ECONOMICS AND FINANCE",167,1374,101,176,1.74257425742574,44.3181818181818,27,60.8,809,6.3,11.9,12,24.8,22.5,43.5,8.8,54.5,45.5,177,76.8,7.3,"Manhattan",40.7092196250004,-74.0120259149996,0,8.1,7.3,7.2,7.5,8.7,8.5,8.7,8.7,6.6,5.7,6,7.1,7.8,7.2,7.3,7.8
"51","02M500","UNITY CENTER FOR URBAN TECHNOLOGIES",25,1070,2.5,NA,NA,NA,25,83.5,237,15.6,32.9,14,3.8,35,55.3,2.5,62.4,37.6,53,73.6,11.3,"Manhattan",40.7461063750005,-73.9810096669996,0,8.4,7.8,7.5,7.6,7.5,7,7.3,7.4,7.9,7.4,7.3,7.9,7.9,7.4,7.4,7.6
"52","02M519","TALENT UNLIMITED HIGH SCHOOL",81,1416,30,34,1.13333333333333,61.7647058823529,26,45.5,491,0.2,3.5,0,4.5,36,39.3,19.8,21.4,78.6,136,92.6,0,"Manhattan",40.7654454020005,-73.9602137859997,0,8.2,7.2,7.2,7.4,6.9,5.4,6,6.4,7,6.2,6.8,7.5,7.4,6.3,6.7,7.1
"53","02M520","MURRY BERGTRAUM HIGH SCHOOL FOR BUSINESS CAREERS",264,1240,118,157,1.33050847457627,48.4076433121019,27,72.7,2073,10.2,14.1,108,10.5,39.9,46.6,2.3,49.1,50.9,637,56.4,11.6,"Manhattan",40.7106794710004,-74.0008070209997,0,6.5,6.4,6.5,6.6,5.5,5.3,5.9,6.4,5.7,5.3,5.7,6.5,5.8,5.5,5.9,6.5
"54","02M529","JACQUELINE KENNEDY ONASSIS HIGH SCHOOL",131,1239,80,118,1.475,24.5762711864407,26,73,724,9.8,13.7,30,5.1,22.7,69.9,1.8,40.6,59.4,148,64.9,10.1,"Manhattan",40.7577573860004,-73.9831877929997,0,8.4,7.5,7.5,7.6,6.6,5.8,6.2,6.5,7.1,6,6.7,7.4,7.4,6.4,6.8,7.2
"55","02M531","REPERTORY COMPANY HIGH SCHOOL FOR THEATRE ARTS",42,1253,2.5,NA,NA,NA,24,65.3,217,0.5,5.1,0,1.4,47.9,42.4,7.4,21.2,78.8,49,85.7,8.2,"Manhattan",40.755942582,-73.9845677019997,0,8,6.8,7.1,6.7,5.9,5.3,6,6.2,5.9,5.6,5.7,6.5,6.6,5.9,6.3,6.5
"56","02M542","MANHATTAN BRIDGES HIGH SCHOOL",66,1058,67,102,1.52238805970149,57.843137254902,23,83.5,541,72.6,1.7,5,0.2,0,99.8,0,51.4,48.6,111,69.4,13.5,"Manhattan",40.7650267080004,-73.9925165779997,0,8.8,8.2,7.6,8.4,7.6,6.6,7.5,8.2,7.2,6.2,6.7,7.5,7.9,7,7.3,8
"57","02M543","NEW DESIGN HIGH SCHOOL",73,1168,2.5,NA,NA,NA,23,66.1,423,5.4,17.5,9,3.8,30.3,62.2,2.6,38.3,61.7,101,67.3,7.9,"Manhattan",40.7168672240004,-73.9895319429996,0,8.4,7.8,7.5,8,7.3,5.6,6.9,7.1,7,6.3,6.8,7.4,7.6,6.6,7.1,7.5
"58","02M544","INDEPENDENCE HIGH SCHOOL",14,1095,2.5,NA,NA,NA,19,NA,NA,NA,NA,NA,NA,NA,NA,NA,NA,NA,145,17.2,13.1,NA,NA,NA,0,9.7,9.6,9.1,9.7,6.1,3.8,5,5.8,9.2,9.3,9.5,9.5,8.3,7.6,7.9,8.4
"59","02M545","HIGH SCHOOL FOR DUAL LANGUAGE AND ASIAN STUDIES",78,1424,61,96,1.57377049180328,92.7083333333333,22,82.6,353,38.2,2.3,0,89.5,3.4,4,2.3,51.3,48.7,54,92.6,0,"Manhattan",40.7168672240004,-73.9895319429996,0,8.6,7.1,7.1,7.4,7.5,5.6,5.8,6.8,NA,NA,NA,NA,7.9,6.2,6.3,6.9
"60","02M550","LIBERTY HIGH SCHOOL ACADEMY FOR NEWCOMERS",26,1156,2.5,NA,NA,NA,19,79.5,397,90.2,2,0,25.7,19.9,42.1,11.8,61,39,97,49.5,19.6,NA,NA,NA,0,8.6,7.8,7.4,8,7,4.7,5.3,6.5,7.7,6.3,7.1,7.5,7.7,6.3,6.6,7.3
"61","02M551","THE URBAN ASSEMBLY NEW YORK HARBOR SCHOOL",77,1212,7,7,1,NA,24,73.5,430,4.2,17.9,12,2.3,37.4,49.3,10.2,60.9,39.1,77,80.5,18.2,"Manhattan",40.6907876290004,-74.0197573259996,0,8.3,7.6,7.5,8.1,6.4,6.2,6.9,7.3,6.8,6,6.7,7.4,7.2,6.6,7,7.6
"62","02M560","HIGH SCHOOL M560 s CITY AS SCHOOL",56,1415,2.5,NA,NA,NA,NA,NA,NA,NA,NA,NA,NA,NA,NA,NA,NA,NA,235,45.1,0.9,NA,NA,NA,0,8.9,7.9,8,8.1,8.5,8.3,8.6,8.6,8.6,7.2,7.9,8.5,8.6,7.8,8.2,8.4
"63","02M565","URBAN ACADEMY LABORATORY HIGH SCHOOL",30,1547,2.5,NA,NA,NA,NA,32.1,157,1.3,0,NA,5.1,33.8,38.2,20.4,40.8,59.2,46,41.3,2.2,NA,NA,NA,0,10,9.6,9.4,10,9.3,8.3,9.6,9.5,9.1,8.3,8.7,9.3,9.5,8.7,9.2,9.6
"64","02M570","SATELLITE ACADEMY HIGH SCHOOL",33,1032,2.5,NA,NA,NA,NA,72.8,248,6.5,14.1,2,1.6,35.1,59.7,2.8,38.7,61.3,379,12.7,10.8,NA,NA,NA,0,8.9,7.8,7.9,8.4,9.3,8.6,9.4,9.1,8.1,7.1,7.8,7.9,8.8,7.8,8.5,8.5
"65","02M575","MANHATTAN COMPREHENSIVE NIGHT AND DAY HIGH SCHOOL",121,1205,58,100,1.72413793103448,61,22,NA,NA,NA,NA,NA,NA,NA,NA,NA,NA,NA,260,45.4,16.9,NA,NA,NA,0,8.9,7.8,7.7,8.1,8.9,7.5,8.5,9,8.7,6.8,8.1,8.3,8.8,7.4,8.1,8.4
"66","02M580","RICHARD R. GREEN HIGH SCHOOL OF TEACHING",84,1195,67,117,1.74626865671642,34.1880341880342,26,67,610,6.4,21.8,16,2.3,35.1,59.3,2.3,32.6,67.4,134,64.9,11.2,"Manhattan",40.7052349390004,-74.0133150399997,0,8.2,7.6,7.2,7.6,7.8,7.4,7.7,8.2,6.6,5.7,6.4,7,7.5,6.9,7.1,7.6
"67","02M586","HARVEY MILK HIGH SCHOOL",9,1303,2.5,NA,NA,NA,14,75.7,68,1.5,22.1,0,5.9,38.2,39.7,16.2,47.1,52.9,30,40,23.3,NA,NA,NA,0,8.8,7.3,7.2,7.6,6.7,4.9,5.7,6.2,7.4,6.9,7.6,8,7.6,6.4,6.8,7.3
"68","02M600","THE HIGH SCHOOL OF FASHION INDUSTRIES",335,1257,70,87,1.24285714285714,29.8850574712644,31,68.3,1599,2.8,11.5,42,3.8,39.1,52.3,4.1,7.3,92.7,416,87.7,2.4,"Manhattan",40.7451115710004,-73.9959064199996,0,7.9,6.8,7.1,7.3,7.4,7.2,7.3,7.7,6.5,5.6,6.5,7.3,7.3,6.5,6.9,7.4
"69","02M605","HUMANITIES PREPARATORY ACADEMY",36,1255,2.5,NA,NA,NA,24,54,192,1,6.8,0,7.3,21.9,57.8,11.5,42.7,57.3,48,81.3,2.1,"Manhattan",40.7428881010004,-74.0021273809996,0,7.7,6.7,6.8,7.2,7.4,5.6,7,7.5,7,6.7,6.6,7.3,7.4,6.3,6.8,7.3
"70","02M615","CHELSEA CAREER AND TECHNICAL EDUCATION HIGH SCHOOL",83,1207,52,97,1.86538461538462,13.4020618556701,25,69.8,466,6.2,15.7,10,7.1,29.6,60.5,1.5,65,35,173,48,24.9,"Manhattan",40.7243528740004,-74.0047592919997,0,8.4,7.6,7.4,7.9,7,5.8,6.1,7.1,6.5,5.8,6.3,7.3,7.3,6.4,6.6,7.4
"71","02M620","NORMAN THOMAS HIGH SCHOOL",154,1108,34,34,1,41.1764705882353,24,81.1,1127,19.3,15.5,66,1.6,25.6,70.6,2,52,48,464,47.8,22.6,NA,NA,NA,0,7,6.8,6.8,7,6.3,6.3,6.2,6.7,6.2,5.6,6.1,6.8,6.5,6.2,6.4,6.9
"72","02M625","HIGH SCHOOL OF GRAPHIC COMMUNICATION ARTS",191,1153,79,85,1.07594936708861,10.5882352941176,27,72.7,1433,9.1,17.2,78,3.1,30.3,63.8,2.6,46.5,53.5,407,49.6,25.1,NA,NA,NA,0,6.7,6.8,6.8,7,6.7,6.4,6.7,7.2,5.7,5.4,5.7,6.5,6.3,6.2,6.4,6.9
"73","02M630","ART AND DESIGN HIGH SCHOOL",270,1315,84,100,1.19047619047619,33,29,53.3,1344,1.6,11.1,32,9,26.8,51,12.6,46.7,53.3,320,67.5,6.9,"Manhattan",40.7654015410004,-73.9817682459997,0,8,6.9,7.2,7.1,8.1,6.4,7.1,7.8,6.7,5.9,6.5,7.2,7.6,6.4,6.9,7.4
"74","02M655","LIFE SCIENCES SECONDARY SCHOOL",61,1236,50,90,1.8,11.1111111111111,24,70.3,717,7.9,19.7,43,3.3,28.6,64.3,2.4,51.6,48.4,118,79.7,5.9,"Manhattan",40.7836442600004,-73.9457417769996,NA,NA,NA,NA,NA,NA,NA,NA,NA,NA,NA,NA,NA,NA,NA,NA,NA
"75","03M283","MANHATTAN THEATRE LAB HIGH SCHOOL",27,1193,2.5,NA,NA,NA,27,59.6,409,8.6,10.5,26,1.7,46,49.4,2.2,31.8,68.2,74,55.4,8.1,NA,NA,NA,0,7,6.8,7,6.9,5.8,4.9,5.2,5.3,6.1,6,6.3,7,6.3,5.9,6.2,6.4
"76","03M299","HIGH SCHOOL FOR ARTS, IMAGINATION AND INQUIRY",49,1132,2.5,NA,NA,NA,24,66.4,418,14.4,19.6,13,1,37.3,58.9,1.4,55.7,44.3,89,61.8,7.9,"Manhattan",40.7742964110004,-73.9848227009996,0,7.6,7,6.8,7,6.5,5.8,6.1,6.5,6.5,5.8,6.4,7.1,6.9,6.2,6.4,6.9
"77","03M307","URBAN ASSEMBLY SCHOOL FOR MEDIA STUDIES, THE",41,1144,2.5,NA,NA,NA,20,68.8,366,12.8,15.3,10,2.2,37.4,56,3,57.9,42.1,100,60,19,"Manhattan",40.7742964110004,-73.9848227009996,0,8.7,7.9,7.8,8.4,7.8,7.9,7.9,8.2,6.9,6.2,7.1,7.6,7.8,7.4,7.6,8.1
"78","03M402","THE URBAN ASSEMBLY SCHOOL FOR GREEN CAREERS",NA,NA,2.5,NA,NA,NA,10,73.2,283,25.1,21.6,9,1.8,19.8,76,1.8,56.9,43.1,NA,NA,NA,"Manhattan",40.7857431570004,-73.9744152279997,0,8.2,7.9,7.7,8,4.4,4.2,5.2,5.7,6.3,6.4,6.3,7.2,6.3,6.2,6.4,7
"79","03M403","THE GLOBAL LEARNING COLLABORATIVE",NA,NA,2.5,NA,NA,NA,25,68.4,358,19.3,19.3,7,3.6,27.7,62.6,5.9,51.4,48.6,NA,NA,NA,"Manhattan",40.7857431570004,-73.9744152279997,0,8.5,7.9,7.7,7.6,7.2,7.6,8.3,8.2,7,6.7,7.1,7.4,7.6,7.4,7.7,7.7
"80","03M404","INNOVATION DIPLOMA PLUS",12,1200,2.5,NA,NA,NA,17,50.4,199,3.5,10.1,0,48.7,33.2,16.6,1.5,47.7,52.3,39,28.2,5.1,NA,NA,NA,0,9.1,8.4,8,8.7,6.8,5.8,6.4,7,7.3,6.4,6.8,7.5,7.7,6.8,7.1,7.7
"81","03M415","WADLEIGH SECONDARY SCHOOL FOR THE PERFORMING & VISUAL ARTS",32,1109,65,73,1.12307692307692,NA,24,76.6,516,7.4,18.8,60,0.4,59.9,38.8,0.8,38.4,61.6,127,55.9,1.6,"Manhattan",40.8021745810005,-73.9540088279996,NA,NA,NA,NA,NA,NA,NA,NA,NA,NA,NA,NA,NA,NA,NA,NA,NA
"82","03M417","FRANK MCCOURT HIGH SCHOOL",NA,NA,2.5,NA,NA,NA,25,24,219,0.9,17.4,0,6.8,18.3,37,37,46.6,53.4,NA,NA,NA,"Manhattan",40.7857431570004,-73.9744152279997,0,8.4,7.6,7.3,7.6,6.9,7,7,7.9,7.3,7.3,7.1,7.7,7.5,7.3,7.2,7.8
"83","03M470","LOUIS D. BRANDEIS HIGH SCHOOL",131,1118,48,70,1.45833333333333,8.57142857142857,22,68.6,291,27.8,10.7,8,2.1,29.6,67.4,1,50.5,49.5,521,35.5,23,NA,NA,NA,0,6.8,6.4,6.8,7.2,7.4,7.3,7.4,8.1,6.3,5.5,6.1,6.6,6.8,6.4,6.8,7.3
"84","03M479","BEACON HIGH SCHOOL",261,1744,166,197,1.18674698795181,71.0659898477157,31,18.4,1162,0.2,3.7,0,8.9,14.6,22.8,49.8,39,61,269,96.3,0,"Manhattan",40.7721581190005,-73.9877965349996,0,8.6,7.9,7.9,8.3,7.5,6.2,6.7,7.5,7.8,7.2,7.6,8.2,8,7.1,7.4,8
"85","03M485","FIORELLO H. LAGUARDIA HIGH SCHOOL OF MUSIC & ART AND PERFORMING ARTS",531,1707,691,1236,1.78871201157742,63.915857605178,31,21.7,2605,0.2,1,0,19.6,12.9,16.6,49.2,26.4,73.6,646,97.1,0.9,"Manhattan",40.7736705070005,-73.9852685579996,0,8.3,7.2,7.7,7.6,7.8,6.3,6.7,7.3,7.1,5.9,6.6,7.6,7.7,6.5,7,7.5
"86","03M492","HIGH SCHOOL FOR LAW, ADVOCACY AND COMMUNITY JUSTICE",66,1196,2.5,NA,NA,NA,23,79.9,541,10.5,15.5,38,1.3,46.2,48.1,1.8,40.1,59.9,107,75.7,9.3,"Manhattan",40.7742964110004,-73.9848227009996,0,9.1,7.6,7.6,8.2,6.7,6.1,6.5,7,6.2,6,6.2,7.4,7.3,6.6,6.8,7.6
"87","03M494","HIGH SCHOOL OF ARTS AND TECHNOLOGY",75,1277,38,38,1,15.7894736842105,28,79.8,603,10.4,17.2,26,5,34.8,57.2,2.3,67.7,32.3,137,62.8,6.6,"Manhattan",40.7742964110004,-73.9848227009996,0,8.3,7.5,7.6,7.9,5.6,3.8,5.1,5.3,6.4,5.8,6.5,7.1,6.8,5.7,6.4,6.8
"88","03M505","EDWARD A. REYNOLDS WEST SIDE HIGH SCHOOL",35,1121,2.5,NA,NA,NA,21,70.5,564,7.8,23,20,0.5,34.6,64.4,0.5,44.3,55.7,200,27.5,6.5,NA,NA,NA,0,8.6,7.7,7.7,8,7.1,5.5,6.6,7.3,7.4,6.1,6.9,7.5,7.7,6.4,7.1,7.6
"89","03M541","MANHATTAN / HUNTER SCIENCE HIGH SCHOOL",111,1446,2.5,NA,NA,NA,22,55.2,453,1.3,3.8,0,25.6,21.4,41.5,10.2,41.1,58.9,90,93.3,1.1,"Manhattan",40.7742964110004,-73.9848227009996,0,8.7,7.7,7.7,8.1,8.1,6.8,7.5,8.1,7.3,6.5,6.9,7.6,8,7,7.3,7.9
"90","03M577","YOUNG ADULT BOROUGH CENTER AT LOUIS D. BRANDEIS HS",NA,NA,2.5,NA,NA,NA,NA,NA,NA,NA,NA,NA,NA,NA,NA,NA,NA,NA,NA,NA,NA,NA,NA,NA,NA,NA,NA,NA,NA,NA,NA,NA,NA,NA,NA,NA,NA,NA,NA,NA,NA
"91","03M860","FREDERICK DOUGLASS ACADEMY II SECONDARY SCHOOL",43,1096,11,11,1,NA,22,64.2,413,5.8,20.8,24,0.7,77.7,18.9,1.5,54.2,45.8,54,74.1,13,"Manhattan",40.8021745810005,-73.9540088279996,NA,NA,NA,NA,NA,NA,NA,NA,NA,NA,NA,NA,NA,NA,NA,NA,NA
"92","04M409","COALITION SCHOOL FOR SOCIAL CHANGE",48,1084,18,18,1,NA,21,71.8,349,9.7,24.4,17,0.9,39.3,58.7,0.9,44.4,55.6,76,65.8,13.2,"Manhattan",40.798865182,-73.9333655969996,0,8.2,7.7,7.7,8.2,8.5,8.7,9.1,9,6.6,6.1,6.6,7.2,7.8,7.5,7.8,8.1
"93","04M435","MANHATTAN CENTER FOR SCIENCE AND MATHEMATICS",375,1430,328,426,1.29878048780488,61.2676056338028,31,71.6,1650,2.7,5.8,29,20.1,19.7,57.4,2.2,46.4,53.6,381,87.7,1.3,"Manhattan",40.7937417060004,-73.9340841419997,0,7.9,7,7.2,7.4,7.2,4.7,5.7,6.6,6.6,5.5,6.5,7.2,7.2,5.7,6.4,7
"94","04M495","PARK EAST HIGH SCHOOL",51,1128,2.5,NA,NA,NA,19,76.8,349,4.3,10.6,3,4.9,33.2,59.6,0.3,42.1,57.9,92,57.6,10.9,"Manhattan",40.7905626,-73.9444544079997,0,8.6,7.7,7.4,7.9,7.6,6.8,7,7.5,7,6.3,6.9,7.6,7.7,6.9,7.1,7.7
"95","04M555","CENTRAL PARK EAST HIGH SCHOOL",73,1221,2.5,NA,NA,NA,25,70.4,445,4,13.5,5,6.5,26.7,64.5,1.6,32.1,67.9,63,66.7,11.1,"Manhattan",40.7936788820004,-73.9494164949996,0,8.6,8,7.7,8.3,8,7.8,8,8.4,6.6,5.8,6,7.4,7.8,7.2,7.3,8.1
"96","04M610","YOUNG WOMEN'S LEADERSHIP SCHOOL",70,1326,41,55,1.34146341463415,52.7272727272727,26,67.3,449,2.2,6.7,0,5.1,31.2,60.1,1.6,0,100,55,100,0,"Manhattan",40.7927069560004,-73.9472996619996,NA,NA,NA,NA,NA,NA,NA,NA,NA,NA,NA,NA,NA,NA,NA,NA,NA
"97","04M635","ACADEMY OF ENVIRONMENTAL SCIENCE SECONDARY HIGH SCHOOL",48,1095,2.5,NA,NA,NA,26,62.7,192,13.5,18.8,14,4.2,27.6,65.6,2.1,62,38,75,41.3,20,NA,NA,NA,0,7.4,7.3,7.1,7.4,6.4,5.3,5.6,6.1,6.4,5.9,6.3,6.9,6.7,6.2,6.3,6.8
"98","04M680","HERITAGE SCHOOL, THE",31,1054,2.5,NA,NA,NA,21,71.8,294,6.8,24.8,12,0.3,28.9,69.4,1,48.6,51.4,75,56,9.3,"Manhattan",40.7918796180004,-73.9465863999997,0,7.8,7,6.9,7.1,6,4.7,5.2,5.7,6.4,5.9,6.4,7,6.7,5.9,6.1,6.6
"99","05M285","HARLEM RENAISSANCE HIGH SCHOOL",29,1008,2.5,NA,NA,NA,17,67.6,222,9.5,10.8,1,0.5,62.2,36.9,0.5,39.2,60.8,81,12.3,22.2,NA,NA,NA,0,8.8,8.1,8,8.2,7.4,6.9,7.6,7.6,7,6.2,6.9,7.5,7.7,7.1,7.5,7.8
"100","05M304","MOTT HALL HIGH SCHOOL",54,1210,11,11,1,NA,26,78.5,426,8.7,15.5,12,0.9,35,63.8,0.2,53.5,46.5,96,69.8,7.3,"Manhattan",40.8173610460005,-73.9477084209997,0,8.3,7.3,7.2,7.3,7.2,6.3,5.9,7.1,6.2,6,6.2,7.2,7.2,6.5,6.4,7.2
"101","05M362","COLUMBIA SECONDARY SCHOOL FOR MATH, SCIENCE, AND ENGINEERING",NA,NA,2.5,NA,NA,NA,25,46.3,474,0.6,0.4,0,11.6,20,48.5,18.4,49.6,50.4,NA,NA,NA,"Manhattan",40.8109178530004,-73.9569273869997,NA,NA,NA,NA,NA,NA,NA,NA,NA,NA,NA,NA,NA,NA,NA,NA,NA
"102","05M367","ACADEMY FOR SOCIAL ACTION: A COLLEGE BOARD SCHOOL",33,1062,17,17,1,NA,23,67,425,9.9,21.6,2,0.5,61.4,38.1,0,48.7,51.3,NA,NA,NA,"Manhattan",40.8152303650004,-73.9552012059996,NA,NA,NA,NA,NA,NA,NA,NA,NA,NA,NA,NA,NA,NA,NA,NA,NA
"103","05M369","URBAN ASSEMBLY SCHOOL FOR THE PERFORMING ARTS",56,1077,2.5,NA,NA,NA,24,77.7,374,6.1,16.6,12,0.5,59.1,38.2,0.8,25.4,74.6,62,69.4,16.1,"Manhattan",40.8152303650004,-73.9552012059996,0,7.3,6.6,6.8,7.1,5.4,4,4.7,4.8,5.2,5.2,5.5,6.4,6,5.3,5.7,6.1
"104","05M469","CHOIR ACADEMY OF HARLEM",20,1099,6,6,1,NA,23,81.9,347,2,13.3,25,0.3,76.1,22.5,0.6,39.8,60.2,39,56.4,10.3,NA,NA,NA,NA,NA,NA,NA,NA,NA,NA,NA,NA,NA,NA,NA,NA,NA,NA,NA,NA
"105","05M499","FREDERICK DOUGLASS ACADEMY",214,1374,163,226,1.38650306748466,70.353982300885,27,57.6,1556,2.4,8.9,45,1.2,74.4,22.8,1.3,52.2,47.8,259,82.6,3.5,"Manhattan",40.8243083850004,-73.9369796129997,NA,NA,NA,NA,NA,NA,NA,NA,NA,NA,NA,NA,NA,NA,NA,NA,NA
"106","05M670","THURGOOD MARSHALL ACADEMY FOR LEARNING AND SOCIAL CHANGE",66,1202,37,38,1.02702702702703,NA,23,65.1,580,1.4,10,0,0.2,78.1,20.9,0.2,44.1,55.9,95,68.4,10.5,"Manhattan",40.8153648290004,-73.9438967099996,NA,NA,NA,NA,NA,NA,NA,NA,NA,NA,NA,NA,NA,NA,NA,NA,NA
"107","05M685","BREAD & ROSES INTEGRATED ARTS HIGH SCHOOL",61,1085,2.5,NA,NA,NA,23,71.8,524,17.6,21,60,0.4,53.2,45.4,0.6,48.9,51.1,121,37.2,18.2,NA,NA,NA,0,8.2,7.1,7.1,7.1,5.8,5.9,5.9,6.6,5.5,5.2,5.5,6.6,6.5,6.1,6.2,6.8
"108","05M692","HIGH SCHOOL FOR MATHEMATICS, SCIENCE AND ENGINEERING AT CITY COLLEGE",101,1847,114,124,1.08771929824561,57.258064516129,22,18.5,406,0,0,NA,36.2,15,21.2,26.1,65.8,34.2,106,95.3,0,"Manhattan",40.8211231120005,-73.9488452439996,0,8.8,7.5,7.6,8.3,8.6,6.6,7.3,7.8,7.8,6.7,7.2,8.2,8.4,7,7.3,8.1
"109","06M293","CITY COLLEGE ACADEMY OF THE ARTS",60,1270,2.5,NA,NA,NA,24,71.6,586,6.1,13.1,0,0.7,6,92,1.2,39.6,60.4,NA,NA,NA,"Manhattan",40.8611133190004,-73.9304521489997,NA,NA,NA,NA,NA,NA,NA,NA,NA,NA,NA,NA,NA,NA,NA,NA,NA
"110","06M346","COMMUNITY HEALTH ACADEMY OF THE HEIGHTS",55,1105,2.5,NA,NA,NA,27,78.8,520,30,17.3,16,0.2,5.2,93.8,0.8,52.3,47.7,NA,NA,NA,"Manhattan",40.8335552190004,-73.9418042119996,NA,NA,NA,NA,NA,NA,NA,NA,NA,NA,NA,NA,NA,NA,NA,NA,NA
"111","06M348","WASHINGTON HEIGHTS EXPEDITIONARY LEARNING SCHOOL",70,1174,2.5,NA,NA,NA,28,87.5,602,19.6,18.1,0,0,2.3,96.7,0.3,55.8,44.2,NA,NA,NA,"Manhattan",40.8488787880004,-73.9308065169997,NA,NA,NA,NA,NA,NA,NA,NA,NA,NA,NA,NA,NA,NA,NA,NA,NA
"112","06M423","HIGH SCHOOL FOR EXCELLENCE AND INNOVATION",NA,NA,2.5,NA,NA,NA,17,99.2,178,19.7,34.3,10,0,25.8,72.5,0,52.8,47.2,NA,NA,NA,"Manhattan",40.8660455490004,-73.9248566419997,0,9.2,8.6,8.2,8.4,8.2,7.7,8.3,8.7,7.6,6.2,6.5,7.6,8.3,7.5,7.7,8.3
"113","06M457","GEORGE WASHINGTON YABC",7,1097,2.5,NA,NA,NA,NA,NA,NA,NA,NA,NA,NA,NA,NA,NA,NA,NA,NA,NA,NA,NA,NA,NA,NA,NA,NA,NA,NA,NA,NA,NA,NA,NA,NA,NA,NA,NA,NA,NA,NA
"114","06M462","HIGH SCHOOL FOR INTERNATIONAL BUSINESS AND FINANCE",76,1127,108,135,1.25,31.8518518518519,26,89.3,630,43,13.7,46,0.5,5.2,91.4,1.4,63.8,36.2,185,74.1,9.2,"Manhattan",40.8559383070005,-73.9270296339997,0,8.2,7.7,7.6,7.8,7.2,6.6,6.1,6.8,7.1,6.3,6.8,7.2,7.5,6.9,6.8,7.3
"115","06M463","HIGH SCHOOL FOR MEDIA AND COMMUNICATIONS",63,1098,37,64,1.72972972972973,NA,23,83.8,572,26.9,17,8,1,10.7,87.1,0.5,63.5,36.5,161,62.7,12.4,"Manhattan",40.8559383070005,-73.9270296339997,0,8,7.7,7.5,7.7,7.4,6.8,7.5,7.8,6.4,5.7,6.2,7.2,7.3,6.8,7.1,7.6
"116","06M467","HIGH SCHOOL FOR LAW AND PUBLIC SERVICE",94,1102,141,212,1.50354609929078,38.6792452830189,25,72.5,694,32,16.7,31,1,13,84.4,1.3,58.6,41.4,171,71.3,9.4,"Manhattan",40.8559383070005,-73.9270296339997,0,8.5,8.2,8,8.3,6.9,6.5,6.9,7.6,6.5,6,6.6,7.4,7.3,6.9,7.1,7.8
"117","06M468","HIGH SCHOOL FOR HEALTH CAREERS AND SCIENCES",24,1224,32,38,1.1875,44.7368421052632,28,90.7,679,31.2,13.8,14,0.7,13.7,83.8,1,52.7,47.3,158,55.7,20.9,"Manhattan",40.8559383070005,-73.9270296339997,0,8.3,8,7.7,7.9,7,7.1,7.5,7.9,6.4,5.8,6.5,7.2,7.2,6.9,7.2,7.7
"118","06M540","A. PHILIP RANDOLPH CAMPUS HIGH SCHOOL",228,1309,165,222,1.34545454545455,32.4324324324324,30,76.3,1285,2.3,5.5,43,4,32.8,62.3,0.7,49.9,50.1,267,71.2,3,"Manhattan",40.8183212690004,-73.9506138279996,0,7.7,7.2,7.1,7.2,5.9,5,5.3,6,6.1,5.5,6.1,7,6.6,5.9,6.2,6.8
"119","06M552","GREGORIO LUPERON HIGH SCHOOL FOR SCIENCE AND MATHEMATICS",56,1014,88,138,1.56818181818182,52.8985507246377,25,92.8,472,89.6,0,NA,0,0,99.8,0,48.9,51.1,91,81.3,8.8,"Manhattan",40.8380323220004,-73.9383710179997,0,9.2,8.4,8.1,8.3,8.5,6.5,7.4,8.4,7.7,6.2,7,7.7,8.5,7,7.5,8.1
"120","07X221","SOUTH BRONX PREPARATORY: A COLLEGE BOARD SCHOOL",65,1090,63,89,1.41269841269841,26.9662921348315,21,72.9,622,8.8,19.3,21,0.6,29.9,68.8,0.5,47.4,52.6,80,80,3.8,"Bronx",40.8140108160004,-73.9208365169997,NA,NA,NA,NA,NA,NA,NA,NA,NA,NA,NA,NA,NA,NA,NA,NA,NA
"121","07X321","CROTONA ACADEMY HIGH SCHOOL",9,1125,2.5,NA,NA,NA,18,78.3,124,2.4,6.5,0,0.8,42.7,54,0.8,31.5,68.5,56,14.3,17.9,NA,NA,NA,0,9.3,8.9,8.5,9,8.7,8.5,9.2,9.5,8.4,7.9,8.2,8.6,8.8,8.4,8.6,9
"122","07X334","INTERNATIONAL COMMUNITY HIGH SCHOOL",34,945,2.5,NA,NA,NA,16,77.5,393,90.1,1.8,0,4.8,20.1,71.8,2,48.6,51.4,10,NA,NA,"Bronx",40.8100361920005,-73.9178124819996,0,8.6,8.2,7.8,8.1,7.8,5.6,7.4,7.5,7.3,6.5,7,7.5,7.9,6.8,7.4,7.7
"123","07X379","JILL CHAIFETZ TRANSFER HIGH SCHOOL",NA,NA,2.5,NA,NA,NA,24,71.7,198,3,7.6,0,0.5,40.9,56.6,1,36.9,63.1,50,10,16,NA,NA,NA,0,9.1,8.1,7.9,8.4,7,5.6,6.2,7.1,7.1,6.7,7.1,7.6,7.8,6.8,7.1,7.7
"124","07X381","BRONX HAVEN HIGH SCHOOL",NA,NA,2.5,NA,NA,NA,NA,64.7,153,7.8,8.5,1,0.7,35.9,62.7,0.7,37.3,62.7,11,NA,NA,NA,NA,NA,0,9,8.1,7.8,8.1,6.9,5.4,6.4,7.1,7.7,6.8,7.9,8.3,7.9,6.8,7.4,7.8
"125","07X427","COMMUNITY SCHOOL FOR SOCIAL JUSTICE",43,1077,2.5,NA,NA,NA,23,82.7,319,13.2,19.7,11,0.6,32.3,65.5,0.9,49.2,50.8,81,64.2,19.8,"Bronx",40.8160844810004,-73.9303238389996,0,8.5,8.4,8,8.7,8,8,8.5,8.6,7.2,6.7,6.8,7.5,7.9,7.7,7.8,8.3
"126","07X473","MOTT HAVEN VILLAGE PREPARATORY HIGH SCHOOL",63,1097,2.5,NA,NA,NA,24,78.5,363,9.6,18.5,8,1.1,22.6,76,0,50.1,49.9,69,63.8,14.5,"Bronx",40.8181735360004,-73.9110926629996,0,8.6,8.1,7.8,8.3,6.7,6,6.6,6.9,6.9,5.9,6.7,7.7,7.4,6.7,7,7.6
"127","07X495","UNIVERSITY HEIGHTS SECONDARY SCHOOL",79,1201,2.5,NA,NA,NA,27,90.1,465,3.7,5.2,0,2.6,18.1,78.1,1.3,43.2,56.8,NA,NA,NA,"Bronx",40.8181735360004,-73.9110926629996,0,8.7,8.1,7.8,8,8.2,7,7.1,7.6,7.2,6,6.5,7.4,8,7,7.2,7.7
"128","07X500","HOSTOSsLINCOLN ACADEMY OF SCIENCE",66,1257,64,107,1.671875,36.4485981308411,21,68.3,538,5.6,11.9,11,2,24,72.7,0.7,45.2,54.8,61,83.6,1.6,"Bronx",40.8149553420005,-73.9125195419996,NA,NA,NA,NA,NA,NA,NA,NA,NA,NA,NA,NA,NA,NA,NA,NA,NA
"129","07X520","FOREIGN LANGUAGE ACADEMY OF GLOBAL STUDIES",64,1186,13,13,1,92.3076923076923,23,89.9,311,21.9,22.5,50,3.2,26,68.8,1,45.3,54.7,136,60.3,7.4,"Bronx",40.8111388560004,-73.9097871269997,0,7.9,7.3,6.8,7.4,7.1,7.1,7,7.6,6,5.7,5.7,6.8,7,6.7,6.5,7.2
"130","07X527","BRONX LEADERSHIP ACADEMY II HIGH SCHOOL",62,1103,30,30,1,NA,24,77,502,14.1,18.5,24,1.4,41.2,56,1,54,46,102,72.5,14.7,"Bronx",40.8227764900004,-73.9235227939997,0,8.5,7.4,7.4,7.8,5.6,5.6,5.8,6.3,6.7,6.2,6.8,7.6,6.9,6.4,6.6,7.2
"131","07X547","NEW EXPLORERS HIGH SCHOOL",28,1084,18,18,1,NA,24,90.4,383,15.7,25.1,17,0.5,30.3,68.1,0.5,57.7,42.3,81,44.4,17.3,"Bronx",40.8227764900004,-73.9235227939997,0,9.1,8.4,8.4,8.2,7.5,7,7.1,7.6,7.7,7.6,7.7,7.7,8.1,7.6,7.7,7.9
"132","07X548","URBAN ASSEMBLY SCHOOL FOR CAREERS IN SPORTS",44,1181,2.5,NA,NA,NA,26,74.3,477,5,18.7,18,0.4,26.6,70.4,0.4,84.3,15.7,82,79.3,6.1,"Bronx",40.8227764900004,-73.9235227939997,0,8.7,8.1,8,8.6,7.2,7.1,7,7.3,7.2,6,6.8,7.7,7.7,7.1,7.3,7.9
"133","07X551","BRONX ACADEMY OF LETTERS",51,1201,53,92,1.73584905660377,40.2173913043478,23,79.1,555,9.4,24,57,0.5,34.1,64.3,0.9,44.5,55.5,76,73.7,6.6,"Bronx",40.8133593030004,-73.9255365149996,NA,NA,NA,NA,NA,NA,NA,NA,NA,NA,NA,NA,NA,NA,NA,NA,NA
"134","07X600","ALFRED E. SMITH CAREER AND TECHNICAL EDUCATION HIGH SCHOOL",76,1158,11,11,1,NA,27,76.7,738,9.1,22,87,1.4,35.9,61.5,0.7,92.7,7.3,267,40.8,18,"Bronx",40.8182468890004,-73.9197356779997,0,7.6,7,7.2,6.9,6,5.5,6.1,6.8,5.7,5.5,5.8,6.6,6.4,6,6.3,6.8
"135","07X655","SAMUEL GOMPERS CAREER AND TECHNICAL EDUCATION HIGH SCHOOL",47,1184,77,126,1.63636363636364,NA,24,75.7,663,17,26.1,120,1.2,32.4,64.9,0.8,79.6,20.4,357,48.5,21.6,NA,NA,NA,0,7.2,6.9,6.9,7.3,6.1,5.2,6,6.4,6,5.7,6.2,6.9,6.4,5.9,6.4,6.8
"136","07X670","HEALTH OPPORTUNITIES HIGH SCHOOL",114,1095,61,117,1.91803278688525,24.7863247863248,26,77.8,587,10.4,19.6,44,3.1,39.2,56.9,0.5,28.6,71.4,134,69.4,18.7,"Bronx",40.8160844810004,-73.9303238389996,0,8.5,7.6,7.6,7.3,6.1,5.6,5.8,6.6,6.3,5.5,6.3,7.3,7,6.2,6.6,7.1
"137","08X269","BRONX STUDIO SCHOOL FOR WRITERS AND ARTISTS",NA,NA,2.5,NA,NA,NA,27,85.6,500,9.2,13.4,41,1.2,22.4,74.8,1,44,56,NA,NA,NA,"Bronx",40.8206236370005,-73.8930735189996,NA,NA,NA,NA,NA,NA,NA,NA,NA,NA,NA,NA,NA,NA,NA,NA,NA
"138","08X282","WOMEN'S ACADEMY OF EXCELLENCE",44,1171,21,22,1.04761904761905,NA,22,72.2,379,2.6,15.6,12,2.9,45.9,46.4,2.4,0.3,99.7,75,66.7,16,"Bronx",40.8149183400005,-73.8565655349997,0,8.1,7,6.8,6.9,7.3,6,6.1,6.6,6.3,5.4,5.6,6.9,7.2,6.1,6.1,6.8
"139","08X293","RENAISSANCE HIGH SCHOOL FOR MUSICAL THEATER & TECHNOLOGY",52,1158,22,29,1.31818181818182,48.2758620689655,26,66.4,469,4.5,21.7,9,2.6,25.4,63.8,7.7,38,62,117,65.8,13.7,"Bronx",40.8405139770004,-73.8381209599996,0,8.2,7.7,7.8,8,7.8,7.6,7.9,8.6,6.9,5.9,6.9,7.4,7.6,7.1,7.5,8
"140","08X295","GATEWAY SCHOOL FOR ENVIRONMENTAL RESEARCH AND TECHNOLOGY",41,1200,2.5,NA,NA,NA,22,74.6,478,11.5,24.1,51,5.6,33.1,59.4,1,60,40,121,40.5,13.2,NA,NA,NA,0,7.1,7,7.1,7.4,5.8,5.2,5.8,6.7,5.6,5.6,6,6.9,6.2,5.9,6.3,7
"141","08X305","PABLO NERUDA ACADEMY FOR ARCHITECTURE AND WORLD STUDIES",67,1038,2.5,NA,NA,NA,20,75.8,359,15.9,27.3,16,2.5,26.2,69.9,1.4,66,34,101,56.4,17.8,"Bronx",40.8223037650004,-73.8559613899997,0,8.3,7.9,7.6,7.8,6.4,6.1,6.5,7,6.3,6,6.1,7,7,6.7,6.7,7.3
"142","08X312","MILLENNIUM ART ACADEMY",67,1164,35,55,1.57142857142857,NA,28,74.2,496,5.4,20.4,22,1.8,32.5,64.3,1,49.2,50.8,108,58.3,9.3,"Bronx",40.8223037650004,-73.8559613899997,0,8.2,7.8,7.6,8,7.8,7.1,7.4,8,6.4,5.7,6.4,7.3,7.5,6.9,7.1,7.8
"143","08X332","HOLCOMBE L. RUCKER SCHOOL OF COMMUNITY RESEARCH",39,1084,20,28,1.4,NA,20,79.6,333,12.6,18,17,0.9,39.9,56.8,0.6,49.2,50.8,89,57.3,14.6,"Bronx",40.8174394460004,-73.8980492059997,0,8.5,7.8,7.8,7.8,6.9,4.8,6.2,7,6.8,6.4,7,7.5,7.4,6.3,7,7.4
"144","08X367","ARCHIMEDES ACADEMY FOR MATH, SCIENCE AND TECHNOLOGY APPLICATIONS",NA,NA,2.5,NA,NA,NA,NA,87.3,500,2.6,22,41,2.8,35,60.2,2,62,38,NA,NA,NA,"Bronx",40.8149183400005,-73.8565655349997,NA,NA,NA,NA,NA,NA,NA,NA,NA,NA,NA,NA,NA,NA,NA,NA,NA
"145","08X376","ANTONIA PANTOJA PREPARATORY ACADEMY, A COLLEGE BOARD SCHOOL",NA,NA,2.5,NA,NA,NA,24,81.3,432,7.4,24.1,35,4.9,27.8,66,0.7,47,53,NA,NA,NA,"Bronx",40.8223037650004,-73.8559613899997,NA,NA,NA,NA,NA,NA,NA,NA,NA,NA,NA,NA,NA,NA,NA,NA,NA
"146","08X377","BRONX COMMUNITY HIGH SCHOOL",9,1112,2.5,NA,NA,NA,NA,73.9,200,4.5,5,1,1,33,63.5,1,50.5,49.5,79,12.7,24.1,NA,NA,NA,0,8.7,8.5,8.1,8.5,7.7,7.4,8,8.7,7.7,7.2,7.7,8.2,8,7.7,7.9,8.5
"147","08X405","HERBERT H. LEHMAN HIGH SCHOOL",415,1241,430,532,1.23720930232558,37.0300751879699,27,66.8,3593,9.2,20.9,347,6.8,23,60.6,9,61.1,38.9,1092,44.6,21.2,"Bronx",40.8405139770004,-73.8381209599996,0,6.6,6.7,6.8,6.9,6.3,5.9,6.7,7,5.5,5.6,6.2,6.8,6.1,6.1,6.6,6.9
"148","08X408","HERBERT H. LEHMAN YABC",6,1188,2.5,NA,NA,NA,NA,NA,NA,NA,NA,NA,NA,NA,NA,NA,NA,NA,NA,NA,NA,NA,NA,NA,NA,NA,NA,NA,NA,NA,NA,NA,NA,NA,NA,NA,NA,NA,NA,NA,NA
"149","08X432","BRONX BRIDGES HIGH SCHOOL",NA,NA,2.5,NA,NA,NA,19,87.2,155,79.4,7.7,3,5.2,8.4,83.2,2.6,52.3,47.7,NA,NA,NA,"Bronx",40.8223037650004,-73.8559613899997,0,8.8,8.3,7.6,8.5,9.3,7.8,9.6,9.8,6.9,6.3,6.6,7.1,8.3,7.5,7.9,8.5
"150","08X452","BRONX GUILD",39,1105,2.5,NA,NA,NA,NA,69.2,305,7.2,23,14,3.9,33.8,61.3,0.7,49.5,50.5,64,62.5,6.3,"Bronx",40.8223037650004,-73.8559613899997,0,8.3,7.7,7.4,8.1,7.7,6.3,7.2,7.2,7.1,6.2,6.8,7.5,7.6,6.5,7.1,7.5
"151","08X507","STEVENSON YABC",NA,NA,2.5,NA,NA,NA,NA,NA,NA,NA,NA,NA,NA,NA,NA,NA,NA,NA,NA,NA,NA,NA,NA,NA,NA,NA,NA,NA,NA,NA,NA,NA,NA,NA,NA,NA,NA,NA,NA,NA,NA
"152","08X519","FELISA RINCON DE GAUTIER INSTITUTE FOR LAW AND PUBLIC POLICY, THE",68,1099,2.5,NA,NA,NA,24,72.3,363,14,20.9,32,1.4,21.8,76,0.6,43,57,99,52.5,17.2,"Bronx",40.8211707700004,-73.8811363459997,0,8.1,8,7.5,7.9,7.3,6.8,6.5,7.5,5.7,5.7,5.8,6.7,7,6.8,6.6,7.4
"153","08X530","BANANA KELLY HIGH SCHOOL",54,1131,2.5,NA,NA,NA,25,81.9,451,13.5,25.7,33,0.7,32.6,65.4,1.1,49.9,50.1,108,41.7,23.1,"Bronx",40.8174394460004,-73.8980492059997,0,9,8.5,8.4,8.5,7.6,6.5,7.6,7.8,7,6.5,7,7.5,7.9,7.2,7.7,7.9
"154","08X537","BRONX ARENA HIGH SCHOOL",NA,NA,2.5,NA,NA,NA,NA,NA,NA,NA,NA,NA,NA,NA,NA,NA,NA,NA,NA,NA,NA,NA,NA,NA,NA,NA,NA,NA,NA,NA,NA,NA,NA,NA,NA,NA,NA,NA,NA,NA,NA
"155","08X540","SCHOOL FOR COMMUNITY RESEARCH AND LEARNING",16,1134,9,9,1,NA,18,83.8,191,11,28.3,26,4.7,28.8,64.9,1,57.1,42.9,89,49.4,15.7,NA,NA,NA,0,7.3,6.8,6.8,7.1,5.6,4.8,4.5,5.5,6.4,5.5,6,6.6,6.4,5.7,5.8,6.4
"156","08X560","HIGH SCHOOL X560 s BRONX ACADEMY HIGH SCHOOL",9,1171,2.5,NA,NA,NA,28,NA,NA,NA,NA,NA,NA,NA,NA,NA,NA,NA,141,19.9,17,NA,NA,NA,0,9.3,8.7,8.5,8.9,8.5,8.6,9.1,9.4,8.2,7.3,8.2,8.6,8.7,8.2,8.6,9
"157","08X650","JANE ADDAMS HIGH SCHOOL FOR ACADEMIC CAREERS",78,1112,44,69,1.56818181818182,11.5942028985507,24,85.7,717,11.2,22.2,69,1.5,36.8,60.8,0.3,28.3,71.7,419,43,25.8,NA,NA,NA,0,6.9,6.7,6.7,6.7,5.3,4.2,5.1,5.6,5.8,6,6.1,6.8,6,5.6,6,6.4
"158","09X227","BRONX EXPEDITIONARY LEARNING HIGH SCHOOL",39,1049,2.5,NA,NA,NA,23,83.9,355,29.3,21.1,28,1.1,27.9,69.3,0.8,50.1,49.9,96,57.3,8.3,"Bronx",40.8403733980004,-73.9108380079996,0,8.3,8,7.8,8.3,7.5,7.5,7.7,8.1,6.5,6.3,7.1,7.6,7.4,7.3,7.5,8
"159","09X231","EAGLE ACADEMY FOR YOUNG MEN",78,1134,32,44,1.375,25,25,60.4,550,4,24.2,33,0.7,63.1,33.8,0.5,100,0,100,63,4,"Bronx",40.8451853270004,-73.8969806679996,0,8.5,7.9,7.9,7.9,6.7,7.1,7.4,7.3,5.8,5.8,6.5,7.2,7,6.9,7.3,7.5
"160","09X239","URBAN ASSEMBLY ACADEMY FOR HISTORY AND CITIZENSHIP FOR YOUNG MEN, THE",33,1084,9,9,1,NA,21,50.2,141,19.9,27.7,20,0.7,56.7,40.4,0.7,100,0,74,41.9,24.3,NA,NA,NA,0,8.6,8.1,8,8.2,6.8,7,7.5,7.4,6.4,6.6,6.9,7.9,7.2,7.2,7.4,7.8
"161","09X241","URBAN ASSEMBLY SCHOOL FOR APPLIED MATH AND SCIENCE, THE",80,1290,16,16,1,NA,22,79.5,606,9.4,14.7,12,2.6,32,63.4,1.5,49.3,50.7,NA,NA,NA,"Bronx",40.8393271260004,-73.9013097899996,NA,NA,NA,NA,NA,NA,NA,NA,NA,NA,NA,NA,NA,NA,NA,NA,NA
"162","09X250","EXIMIUS COLLEGE PREPARATORY ACADEMY: A COLLEGE BOARD SCHOOL",50,1169,90,146,1.62222222222222,7.53424657534247,25,62.9,356,8.1,18.8,14,0.6,40.7,58.1,0.3,46.6,53.4,60,60,5,"Bronx",40.8337385590005,-73.9024482449997,NA,NA,NA,NA,NA,NA,NA,NA,NA,NA,NA,NA,NA,NA,NA,NA,NA
"163","09X252","MOTT HALL BRONX HIGH SCHOOL",67,1092,2.5,NA,NA,NA,28,58.9,354,8.8,15.5,28,1.1,24.3,73.7,0.8,45.8,54,107,77.6,1.9,"Bronx",40.8393271260004,-73.9013097899996,0,9,8.4,8.2,8.6,6.6,5.7,6.2,6.7,6.6,5.9,6.3,7.2,7.4,6.7,6.9,7.5
"164","09X260","BRONX CENTER FOR SCIENCE AND MATHEMATICS",81,1396,62,80,1.29032258064516,43.75,23,70,444,1.6,14,14,5.9,24.3,68.7,1.1,46.2,53.8,100,88,4,"Bronx",40.8337385590005,-73.9024482449997,0,8.7,7.9,7.9,8.4,7.7,6.6,7,8,7.1,6.2,6.9,8,7.8,6.9,7.3,8.1
"165","09X263","VALIDUS PREPARATORY ACADEMY: AN EXPEDITIONARY LEARNING SCHOOL",74,1075,7,7,1,NA,26,76.1,365,12.1,16.2,18,1.1,34.2,63.8,0.3,44.1,55.9,120,75,11.7,"Bronx",40.8393271260004,-73.9013097899996,0,8.4,7.7,7.8,7.9,7.9,7.3,8.4,8.6,7.6,6.9,7.4,7.9,8,7.3,7.9,8.2
"166","09X276","LEADERSHIP INSTITUTE",30,1081,17,17,1,41.1764705882353,22,94.8,230,16.5,16.1,24,1.7,33,63.5,1.3,52.2,47.8,67,53.7,20.9,"Bronx",40.841270878,-73.8979786769996,0,8.7,8.2,7.9,8.2,6.7,5,6,6.4,7.1,6.3,7.2,7.8,7.5,6.5,7,7.5
"167","09X297","MORRIS ACADEMY FOR COLLABORATIVE STUDIES",38,1148,2.5,NA,NA,NA,23,79.1,450,19.1,22.4,19,0.4,26,73.1,0.4,53.8,46.2,99,67.7,15.2,"Bronx",40.827602669,-73.9044752569997,0,8.4,7.9,7.5,8,6.8,7.1,7.2,7.6,6.4,5.7,6.4,7.3,7.2,6.9,7,7.6
"168","09X324","BRONX EARLY COLLEGE ACADEMY FOR TEACHING & LEARNING",NA,NA,2.5,NA,NA,NA,28,79.4,493,11,16.2,21,3,32,64.5,0.2,48.5,51.5,NA,NA,NA,"Bronx",40.8287141800005,-73.9177557019996,NA,NA,NA,NA,NA,NA,NA,NA,NA,NA,NA,NA,NA,NA,NA,NA,NA
"169","09X329","DREAMYARD PREPARATORY SCHOOL",51,1138,15,15,1,NA,23,80,349,24.4,19.5,38,0,26.9,69.9,0.3,44.1,55.9,93,43,16.1,"Bronx",40.8403733980004,-73.9108380079996,0,8.3,7.9,7.7,8.2,6.1,5.4,6.6,6.7,6,5.8,6.3,6.9,6.8,6.4,6.9,7.3
"170","09X365","ACADEMY FOR LANGUAGE AND TECHNOLOGY",54,951,20,20,1,100,24,85.7,336,86.6,0.9,0,0,0.6,99.4,0,48.8,51.2,NA,NA,NA,"Bronx",40.8491021680004,-73.9160884409997,0,9.2,8.6,8.1,8.6,6.9,5.4,6.1,7,7.5,6.5,7.2,7.7,7.9,6.8,7.1,7.8
"171","09X403","BRONX INTERNATIONAL HIGH SCHOOL",49,965,2.5,NA,NA,NA,16,82.3,403,87.1,1.2,1,1,22.8,72.2,3.7,45.7,54.3,88,65.9,4.5,"Bronx",40.827602669,-73.9044752569997,0,8.4,8.3,7.8,8.3,6.8,6.4,7.5,8.2,7,6.8,7.2,7.6,7.4,7.2,7.5,8.1
"172","09X404","SCHOOL FOR EXCELLENCE",32,1074,2.5,NA,NA,NA,24,81.4,386,20.7,26.2,35,0.3,34.5,64.5,0,52.3,47.7,108,54.6,9.3,"Bronx",40.827602669,-73.9044752569997,0,8.9,7.6,7.8,7.8,6.7,7,7,7.4,6.9,6.1,6.3,7.3,7.5,6.9,7,7.5
"173","09X412","BRONX HIGH SCHOOL OF BUSINESS",34,1083,26,31,1.19230769230769,29.0322580645161,23,77.6,401,23.2,23.2,53,0.7,38.7,59.9,0.5,54.9,45.1,110,49.1,16.4,"Bronx",40.8403733980004,-73.9108380079996,0,7.8,7.6,7.2,7.4,5.9,5.7,6,6.4,6.1,5.7,6.2,7.1,6.6,6.3,6.4,7
"174","09X413","BRONX HIGH SCHOOL FOR MEDICAL SCIENCE",64,1221,2.5,NA,NA,NA,26,76.9,455,5.7,8.6,21,5.3,36.7,57.8,0.2,42.2,57.8,103,83.5,1,"Bronx",40.8403733980004,-73.9108380079996,NA,NA,NA,NA,NA,NA,NA,NA,NA,NA,NA,NA,NA,NA,NA,NA,NA
"175","09X414","JONATHAN LEVIN HIGH SCHOOL FOR MEDIA AND COMMUNICATIONS",35,1122,18,18,1,NA,25,77.7,382,38.5,20.9,47,0.5,22.3,75.4,1.6,53.4,46.6,123,45.5,4.1,NA,NA,NA,0,8.7,8.2,7.9,8.3,6.7,6.6,6.6,7.3,6.3,5.7,6.1,6.9,7.2,6.9,6.9,7.5
"176","09X505","BRONX SCHOOL FOR LAW, GOVERNMENT AND JUSTICE",80,1224,45,55,1.22222222222222,49.0909090909091,28,66.2,763,6.6,14,45,2,30.4,66.2,1,45.9,54.1,122,77,4.1,"Bronx",40.8275893670005,-73.9186681599996,NA,NA,NA,NA,NA,NA,NA,NA,NA,NA,NA,NA,NA,NA,NA,NA,NA
"177","09X517","FREDERICK DOUGLASS ACADEMY III SECONDARY SCHOOL",50,1121,26,36,1.38461538461538,NA,23,79.7,532,6.4,17.7,35,1.1,56.2,41.4,0.4,51.5,48.5,87,78.2,1.1,"Bronx",40.8341672500004,-73.9040329479997,NA,NA,NA,NA,NA,NA,NA,NA,NA,NA,NA,NA,NA,NA,NA,NA,NA
"178","09X525","BRONX LEADERSHIP ACADEMY HIGH SCHOOL",114,1166,40,42,1.05,19.047619047619,27,76.9,705,9.6,20.3,69,0.7,41.1,57,0,43.3,56.7,178,68.5,18.5,"Bronx",40.8435811950004,-73.9032200379996,0,8.3,7.8,7.6,7.9,7,6.6,7.2,7.6,6.1,5.8,6.3,7.3,7.1,6.7,7,7.6
"179","09X543","HIGH SCHOOL FOR VIOLIN AND DANCE",27,1039,2.5,NA,NA,NA,22,84.3,323,8.7,22.3,16,0.3,36.8,62.5,0,14.6,85.4,47,78.7,4.3,"Bronx",40.827602669,-73.9044752569997,0,8.6,7.9,7.9,8.1,6.8,6.1,7,7.3,6.6,6,6.8,7.4,7.3,6.7,7.2,7.6
"180","10X141","RIVERDALE / KINGSBRIDGE ACADEMY (MIDDLE SCHOOL / HIGH SCHOOL 141)",113,1333,133,184,1.38345864661654,64.6739130434783,27,39.7,1337,6.7,15.2,65,8.8,13,53,24.9,51.8,48.2,135,86.7,3.7,"Bronx",40.8883728490004,-73.9140932039996,NA,NA,NA,NA,NA,NA,NA,NA,NA,NA,NA,NA,NA,NA,NA,NA,NA
"181","10X213","BRONX ENGINEERING AND TECHNOLOGY ACADEMY",86,1150,107,228,2.13084112149533,4.3859649122807,22,79.8,444,15.5,21.4,4,5.2,29.5,64.2,0.9,82.7,17.3,73,75.3,5.5,"Bronx",40.8770494430004,-73.9123365989997,0,8.4,7.6,7.5,7.7,6.3,6.3,6.6,7,6.5,5.9,6.8,7.5,7.1,6.6,7,7.4
"182","10X225","THEATRE ARTS PRODUCTION COMPANY SCHOOL",59,1190,17,27,1.58823529411765,NA,25,67.4,524,4.4,18.9,3,1.1,27.3,69.7,1.1,30.9,69.1,62,93.5,1.6,"Bronx",40.8546465990004,-73.8966455529996,NA,NA,NA,NA,NA,NA,NA,NA,NA,NA,NA,NA,NA,NA,NA,NA,NA
"183","10X237","THE MARIE CURIE SCHOOL FOR MEDICINE, NURSING, AND HEALTH PROFESSIONS",79,1157,15,15,1,NA,26,71.5,540,6.7,15.6,19,1.5,35.6,57.4,3.3,16.5,83.5,67,73.1,4.5,"Bronx",40.8759754490005,-73.9012348919996,0,8.1,7.6,7.4,7.8,6,5.4,6.1,6.4,5.9,5.9,5.9,6.9,6.7,6.3,6.5,7
"184","10X243","WEST BRONX ACADEMY FOR THE FUTURE",26,1158,25,29,1.16,48.2758620689655,25,86.3,636,13.2,19.5,15,3.5,24.7,69.5,1.3,57.9,42.1,72,48.6,16.7,"Bronx",40.8600122210004,-73.8882296039997,NA,NA,NA,NA,NA,NA,NA,NA,NA,NA,NA,NA,NA,NA,NA,NA,NA
"185","10X268","KINGSBRIDGE INTERNATIONAL HIGH SCHOOL",52,962,32,37,1.15625,NA,30,95.1,497,88.7,0.4,0,6.8,5.4,84.7,3,52.3,47.7,118,56.8,11,"Bronx",40.8703774670004,-73.8981629519997,0,8.2,7.9,7.5,7.9,6.9,6,7.6,7.9,6.9,6,6.6,7.4,7.3,6.6,7.2,7.7
"186","10X284","BRONX SCHOOL OF LAW AND FINANCE",54,1182,21,27,1.28571428571429,NA,23,74.2,422,7.1,15.2,21,0.7,31.5,65.2,2.6,56.6,43.4,99,58.6,19.2,"Bronx",40.8770494430004,-73.9123365989997,0,8,7.4,7.3,7.6,6.8,6.7,6.7,7,6.1,6,6.4,7.1,7,6.7,6.8,7.2
"187","10X319","PROVIDING URBAN LEARNERS SUCCESS IN EDUCATION HIGH SCHOOL",NA,NA,2.5,NA,NA,NA,17,81.8,213,5.2,16.4,1,0,37.6,61.5,0.5,40.4,59.6,113,21.2,21.2,NA,NA,NA,0,9.1,6.8,6.1,7.5,7.7,5.7,6.1,6.9,8.4,7.3,7.9,8.3,8.2,6.6,6.8,7.6
"188","10X342","INTERNATIONAL SCHOOL FOR LIBERAL ARTS",49,934,55,73,1.32727272727273,61.6438356164384,24,78.3,606,79.9,4.6,3,0.2,0,99.8,0,49,51,83,59,12,"Bronx",40.8703774670004,-73.8981629519997,NA,NA,NA,NA,NA,NA,NA,NA,NA,NA,NA,NA,NA,NA,NA,NA,NA
"189","10X368","INsTECH ACADEMY (M.S. / HIGH SCHOOL 368)",111,1181,40,54,1.35,31.4814814814815,26,77.9,1126,12.1,14.3,36,4,11.9,81.9,2,48.9,51.1,115,62.6,12.2,"Bronx",40.8800500930004,-73.9092090479996,NA,NA,NA,NA,NA,NA,NA,NA,NA,NA,NA,NA,NA,NA,NA,NA,NA
"190","10X374","KNOWLEDGE AND POWER PREPARATORY ACADEMY INTERNATIONAL HIGH SCHOOL (KAPPA)",61,1180,2.5,NA,NA,NA,23,75.3,324,9.3,11.1,3,0.9,35.2,59.9,3.1,47.2,52.8,2,NA,NA,"Bronx",40.8600122210004,-73.8882296039997,0,8.8,8.5,8.2,8.8,7.9,6.9,7.9,8.5,7.2,6.6,7.2,8,8,7.3,7.8,8.4
"191","10X397","ENGLISH LANGUAGE LEARNERS AND INTERNATIONAL SUPPORT PREPARATORY ACADEMY (ELLIS)",38,1029,2.5,NA,NA,NA,18,92.8,316,80.4,0,NA,7,16.5,72.5,1.9,55.7,44.3,3,NA,NA,NA,NA,NA,0,8.7,7.9,7.6,8.1,8.4,7.8,8.3,9.3,7.4,6.5,7,7.8,8.1,7.3,7.5,8.2
"192","10X433","HIGH SCHOOL FOR TEACHING AND THE PROFESSIONS",57,1106,62,83,1.33870967741935,15.6626506024096,21,88.1,473,17.8,20.1,44,2.5,25.2,70.4,1.9,42.3,57.7,134,65.7,22.4,"Bronx",40.8703774670004,-73.8981629519997,0,8.4,8,7.9,7.9,7.3,7.8,8,8.8,5.9,5.4,6.1,6.7,7.2,7.1,7.4,7.8
"193","10X434","BELMONT PREPARATORY HIGH SCHOOL",51,1222,31,45,1.45161290322581,22.2222222222222,22,76.8,407,11.3,15.7,43,3.2,29,65.6,1.7,47.2,52.8,96,63.5,11.5,"Bronx",40.8600122210004,-73.8882296039997,0,8.2,6.9,6.9,7.3,7.5,6.6,7.2,7.8,6,5.4,5.5,6.7,7.2,6.3,6.6,7.3
"194","10X437","FORDHAM HIGH SCHOOL FOR THE ARTS",48,1077,2.5,NA,NA,NA,23,78.3,387,12.4,22.5,41,1.6,35.7,61.5,1.3,43.2,56.8,82,73.2,7.3,"Bronx",40.8600122210004,-73.8882296039997,0,8.4,8.5,8.5,8.4,6.3,5.5,6.1,6.7,7,6.2,7.1,7.6,7.2,6.7,7.2,7.6
"195","10X438","FORDHAM LEADERSHIP ACADEMY FOR BUSINESS AND TECHNOLOGY",63,1119,42,47,1.11904761904762,25.531914893617,21,78.9,451,16.6,20.6,46,2.7,27.7,67.8,1.3,63.4,36.6,144,51.4,16,"Bronx",40.8600122210004,-73.8882296039997,0,8.5,7.4,7.3,7.3,5.6,4.2,5.7,5.8,5.8,5.3,5.9,6.9,6.6,5.6,6.3,6.7
"196","10X439","BRONX HIGH SCHOOL FOR LAW AND COMMUNITY SERVICE",65,1082,44,65,1.47727272727273,13.8461538461538,22,80.2,432,13.4,20.8,33,2.3,30.8,64.6,0.9,44.4,55.6,115,40,12.2,"Bronx",40.8600122210004,-73.8882296039997,0,7.5,7.6,7.2,7.7,6.9,6,6.2,7,6,6,6.5,7.3,6.8,6.5,6.6,7.3
"197","10X440","DEWITT CLINTON HIGH SCHOOL",443,1255,366,540,1.47540983606557,48.5185185185185,26,74.8,4159,19,14.9,352,6.7,30.8,59.6,2.1,51.1,48.9,1013,56.5,17.5,"Bronx",40.8800818400004,-73.8859015329996,0,5.7,6.4,6.5,6.8,6,6.9,7.3,7.6,5.2,5.4,6,6.9,5.7,6.2,6.6,7.1
"198","10X442","CELIA CRUZ BRONX HIGH SCHOOL OF MUSIC, THE",52,1270,31,35,1.12903225806452,22.8571428571429,23,74.7,423,3.5,7.8,2,0.5,27.2,69.5,2.4,40.7,59.3,82,74.4,7.3,"Bronx",40.8703774670004,-73.8981629519997,0,8.2,7.8,7.6,7.8,6.5,4.6,5.4,6,6.5,6.2,6.9,7.4,7.1,6.2,6.6,7.1
"199","10X445","BRONX HIGH SCHOOL OF SCIENCE",731,1969,1190,2435,2.04621848739496,89.8973305954825,31,34.2,3013,0.1,0.1,0,63.5,3.5,7.2,25.4,57.8,42.2,668,98.4,0,"Bronx",40.8770563680004,-73.8897803509997,0,8.1,7.8,7.6,7.9,7.4,5,5.3,6.9,6.8,6.3,6.7,7.6,7.4,6.4,6.5,7.5
"200","10X475","JOHN F. KENNEDY HIGH SCHOOL",109,1052,46,48,1.04347826086957,39.5833333333333,25,77.8,706,23.8,20.8,57,0.7,35.1,62.7,1.4,68.3,31.7,502,35.7,29.3,NA,NA,NA,0,7.3,6.9,6.7,6.8,4.7,3.6,3.8,4.5,5.6,5.2,5.7,6.2,5.6,4.9,5.1,5.6
"201","10X477","MARBLE HILL HIGH SCHOOL FOR INTERNATIONAL STUDIES",99,1263,83,141,1.69879518072289,26.241134751773,23,83.9,456,32.2,6.8,0,11,23,57.9,7.5,46.7,53.3,107,88.8,0,"Bronx",40.8770494430004,-73.9123365989997,0,8.8,8.2,7.9,8.3,8.2,6.6,7,7.6,7.1,6.3,6.9,7.7,8,7.1,7.3,7.9
"202","10X478","LEARNING TO WORK GED AT JOHN F. KENNEDY",NA,NA,2.5,NA,NA,NA,NA,NA,NA,NA,NA,NA,NA,NA,NA,NA,NA,NA,NA,NA,NA,NA,NA,NA,NA,NA,NA,NA,NA,NA,NA,NA,NA,NA,NA,NA,NA,NA,NA,NA,NA
"203","10X546","BRONX THEATRE HIGH SCHOOL",68,1064,34,34,1,NA,24,73.7,445,9.4,15.1,21,0.4,28.8,69,1.8,32.1,67.9,108,51.9,18.5,"Bronx",40.8770494430004,-73.9123365989997,0,9.6,9.3,9.3,9.4,7.2,6.6,7.1,7.5,7.4,6.4,7.6,8.1,8,7.4,8,8.3
"204","10X549","DISCOVERY HIGH SCHOOL",55,1115,2.5,NA,NA,NA,24,80,529,20.6,17.8,53,2.1,20.2,75.6,1.3,52.4,47.6,96,64.6,13.5,"Bronx",40.8703774670004,-73.8981629519997,0,8.7,8,7.7,8.1,8.3,7.3,7.1,8.2,6.2,5.5,6.1,6.8,7.6,6.7,6.8,7.6
"205","10X660","GRACE DODGE CAREER AND TECHNICAL EDUCATION HIGH SCHOOL",73,1100,2.5,NA,NA,NA,25,71,1162,18.8,24.1,153,1.5,30.1,67.1,0.9,40,60,362,42,27.1,NA,NA,NA,0,7.5,7.5,7.4,7.6,7.9,8.1,8.5,8.7,5.9,5.5,5.9,6.8,7.1,7,7.3,7.7
"206","10X667","GRACE DODGE YABC",10,1023,2.5,NA,NA,NA,NA,NA,NA,NA,NA,NA,NA,NA,NA,NA,NA,NA,NA,NA,NA,NA,NA,NA,NA,NA,NA,NA,NA,NA,NA,NA,NA,NA,NA,NA,NA,NA,NA,NA,NA
"207","10X696","HIGH SCHOOL OF AMERICAN STUDIES AT LEHMAN COLLEGE",92,1920,194,302,1.55670103092784,80.4635761589404,22,20.8,377,0,1.3,0,16.7,10.6,18,53.8,53.8,46.2,78,97.4,1.3,"Bronx",40.871255374,-73.8975162039997,0,9.1,8.1,8.1,8.7,8.8,7.4,8.2,9,8.1,7.1,7.8,8.6,8.7,7.5,8,8.7
"208","11X249","BRONX HEALTH SCIENCES HIGH SCHOOL",74,1133,2.5,NA,NA,NA,23,73.9,377,6.1,7.4,8,4.8,56.8,36.3,0.5,35.3,64.7,58,96.6,0,"Bronx",40.8741317980004,-73.8338045129997,0,8.3,7.9,7.3,8,8.2,6.8,7.4,7.9,6.3,5.4,5.8,7.2,7.6,6.7,6.8,7.7
"209","11X253","BRONX HIGH SCHOOL FOR WRITING AND COMMUNICATION ARTS",46,1147,28,30,1.07142857142857,NA,24,72.4,422,8.5,14.5,23,2.4,48.3,47.6,1.7,40.8,59.2,118,66.9,11.9,"Bronx",40.8757542110004,-73.8613878339996,0,7.4,7.6,7.3,7.8,6.8,5.9,6.8,7.1,5.5,5.3,5.8,6.6,6.6,6.2,6.6,7.2
"210","11X265","BRONX LAB SCHOOL",81,1135,2.5,NA,NA,NA,22,75.5,482,3.7,15.8,14,2.7,37.8,57.3,1.7,59.5,40.5,94,62.8,7.4,"Bronx",40.8757542110004,-73.8613878339996,0,7.6,7.6,7.5,7.5,6.4,6.4,6.6,7.1,6.4,6,6.4,7.3,6.8,6.7,6.8,7.3
"211","11X270","ACADEMY FOR SCHOLARSHIP AND ENTREPRENEURSHIP: A COLLEGE BOARD SCHOOL",56,1141,24,24,1,NA,28,63.7,606,6.3,18.5,45,2.5,63.7,32,0.7,52,48,65,66.2,3.1,"Bronx",40.8879192140005,-73.8528716139996,NA,NA,NA,NA,NA,NA,NA,NA,NA,NA,NA,NA,NA,NA,NA,NA,NA
"212","11X275","HIGH SCHOOL OF COMPUTERS AND TECHNOLOGY",72,1111,2.5,NA,NA,NA,28,71.8,550,10.2,20.2,8,3.6,34.9,59.5,1.3,87.3,12.7,90,82.2,3.3,"Bronx",40.8757542110004,-73.8613878339996,0,9.3,8.8,8.9,9,6.6,6.2,6.3,6.8,6.3,5.7,6.6,7.4,7.4,6.9,7.2,7.7
"213","11X288","COLLEGIATE INSTITUTE FOR MATH AND SCIENCE",97,1348,79,111,1.40506329113924,29.7297297297297,24,67.9,543,3.3,14,18,9.2,36.8,46.8,7,57.1,42.9,121,74.4,15.7,"Bronx",40.8596983160004,-73.8607414039997,0,8.3,8.3,7.9,8.4,8.4,8.6,8.5,9.1,7.2,6.7,7.3,8.4,8,7.9,7.9,8.7
"214","11X290","BRONX ACADEMY OF HEALTH CAREERS",69,1135,2.5,NA,NA,NA,27,70.8,483,7.7,19,33,3.3,52.6,41.2,1,32.7,67.3,99,62.6,18.2,"Bronx",40.8757542110004,-73.8613878339996,0,7.3,7.1,7,7.4,7.9,8.2,7.9,8.4,5.9,5.7,5.9,7,7,7,7,7.6
"215","11X299","ASTOR COLLEGIATE ACADEMY",60,1169,36,48,1.33333333333333,25,24,64.4,498,7.6,21.7,23,5.4,35.7,46,11.8,58.6,41.4,111,64.9,9,"Bronx",40.8596983160004,-73.8607414039997,0,7.7,7.7,7.6,7.8,6.8,7.4,7.3,7.7,5.9,5.7,6.3,7.2,6.8,6.9,7.1,7.6
"216","11X415","CHRISTOPHER COLUMBUS HIGH SCHOOL",121,1081,34,34,1,17.6470588235294,27,59.2,727,18.3,24.1,88,5.8,34.9,46.5,12.7,55.2,44.8,382,41.6,13.6,NA,NA,NA,0,8.5,8.2,8.4,8.1,6.7,7.3,7.4,7.8,6.1,5.9,6.6,7.2,7.1,7.1,7.5,7.7
"217","11X417","YOUNG ADULT BOROUGH CNTR CHRISTOPHER COLUMBUS HS",NA,NA,2.5,NA,NA,NA,NA,NA,NA,NA,NA,NA,NA,NA,NA,NA,NA,NA,NA,NA,NA,NA,NA,NA,NA,NA,NA,NA,NA,NA,NA,NA,NA,NA,NA,NA,NA,NA,NA,NA,NA
"218","11X418","BRONX HIGH SCHOOL FOR THE VISUAL ARTS",48,1268,26,41,1.57692307692308,21.9512195121951,27,68.7,483,5.2,20.9,26,1.9,29.2,62.3,6.4,58,42,95,62.1,15.8,"Bronx",40.8514334850005,-73.8650179589997,0,8.4,7.4,7.5,7.3,7,6.6,6.8,7.3,6.3,5.3,6.1,6.9,7.3,6.4,6.8,7.1
"219","11X455","HARRY S TRUMAN HIGH SCHOOL",189,1151,103,135,1.31067961165049,20,29,50.6,1773,9.2,25.1,258,2,51.8,43.8,1.3,60,40,565,59.8,13.8,"Bronx",40.8741317980004,-73.8338045129997,0,7.1,6.9,7,7.2,7.2,7.2,7.3,7.7,6,5.6,6.3,7.2,6.8,6.6,6.9,7.4
"220","11X456","LEARNING TO WORK YABC AT TRUMAN HIGH SCHOOL",NA,NA,2.5,NA,NA,NA,NA,NA,NA,NA,NA,NA,NA,NA,NA,NA,NA,NA,NA,NA,NA,NA,NA,NA,NA,NA,NA,NA,NA,NA,NA,NA,NA,NA,NA,NA,NA,NA,NA,NA,NA
"221","11X513","NEW WORLD HIGH SCHOOL",72,1048,12,12,1,NA,22,79.5,402,80.1,1.5,0,12.4,13.2,70.4,3.2,50,50,62,74.2,3.2,"Bronx",40.8879192140005,-73.8528716139996,0,8.2,7.6,7.3,8.1,6.7,5,6.1,7.2,7.1,6.8,7.3,8,7.3,6.5,6.9,7.8
"222","11X514","THE BRONXWOOD PREPARATORY ACADEMY",48,1112,2.5,NA,NA,NA,23,66.7,416,7,20.9,42,1.9,58.2,37.3,1,61.3,38.7,66,50,15.2,"Bronx",40.8879192140005,-73.8528716139996,0,8.6,8,7.7,8,6.8,6.6,6.6,7.4,6,5.7,6.1,7.1,7.1,6.8,6.8,7.5
"223","11X541","GLOBAL ENTERPRISE HIGH SCHOOL",57,1129,2.5,NA,NA,NA,21,80.3,270,14.4,17.8,22,4.1,35.9,54.1,5.6,56.7,43.3,116,50.9,16.4,NA,NA,NA,0,7.7,7.6,7.3,7.6,7.1,6.2,5.2,6.4,5.9,5.8,6.2,7.1,6.9,6.5,6.2,7
"224","11X542","PELHAM PREPARATORY ACADEMY",76,1288,46,57,1.23913043478261,29.8245614035088,27,61,507,2.2,14.2,29,2.4,40.2,49.7,6.9,48.1,51.9,111,89.2,3.6,"Bronx",40.8596983160004,-73.8607414039997,0,8.7,8.3,8.2,8.6,7.2,8.1,7.5,8.2,6.4,5.6,6.4,7.6,7.4,7.4,7.4,8.1
"225","11X544","HIGH SCHOOL FOR CONTEMPORARY ARTS",55,1126,2.5,NA,NA,NA,26,71.9,479,10.2,21.3,34,1,37.2,59.9,1,55.3,44.7,118,60.2,2.5,"Bronx",40.8757542110004,-73.8613878339996,0,8.7,7.7,7.8,7.8,7.5,7.5,7.8,8.1,6.7,5.6,6.5,7,7.6,6.9,7.4,7.6
"226","11X545","BRONX AEROSPACE HIGH SCHOOL",46,1163,2.5,NA,NA,NA,21,45.6,416,14.7,25.7,45,2.2,23.8,72.6,1.2,82.5,17.5,70,88.6,4.3,"Bronx",40.8757542110004,-73.8613878339996,0,7.6,7.1,6.9,7.3,6.3,6,6.4,6.7,5.6,5.5,5.5,6.4,6.5,6.2,6.3,6.8
"227","12X245","NEW DAY ACADEMY",25,1046,2.5,NA,NA,NA,20,87,191,11,23,19,1,45.5,53.4,0,48.2,51.8,72,27.8,25,NA,NA,NA,NA,NA,NA,NA,NA,NA,NA,NA,NA,NA,NA,NA,NA,NA,NA,NA,NA
"228","12X248","METROPOLITAN HIGH SCHOOL, THE",49,1055,25,25,1,NA,23,86.6,339,21.8,20.9,16,1.8,24.2,72.9,0.9,54,46,104,71.2,12.5,"Bronx",40.8252260600004,-73.8939498889997,0,8.9,8.5,7.9,8.6,7.4,6.9,6.5,7.4,6.8,6,6.6,7.1,7.7,7.1,7,7.7
"229","12X251","EXPLORATIONS ACADEMY",57,1122,2.5,NA,NA,NA,21,76.4,362,19.9,21.3,19,1.7,31.2,65.5,1.4,50.8,49.2,69,72.5,17.4,"Bronx",40.8359373280004,-73.8904676929997,0,8.3,8,7.8,8.1,6.5,5.7,6.2,7.3,6.9,6.5,7.1,7.7,7.2,6.7,7,7.7
"230","12X262","PERFORMANCE CONSERVATORY HIGH SCHOOL",30,1074,2.5,NA,NA,NA,26,61.9,260,10,28.1,29,1.2,39.2,57.7,0.8,24.6,75.4,113,45.1,18.6,NA,NA,NA,0,8.5,7.7,7.6,7.4,5.9,4.5,5,5.8,6,5.6,6.4,7,6.8,5.9,6.3,6.7
"231","12X267","BRONX LATIN",36,1251,2.5,NA,NA,NA,22,79.3,418,13.6,21.5,34,0.2,25.6,73.2,1,49.8,50.2,2,NA,NA,"Bronx",40.8277639790004,-73.9003868129997,NA,NA,NA,NA,NA,NA,NA,NA,NA,NA,NA,NA,NA,NA,NA,NA,NA
"232","12X271","EAST BRONX ACADEMY FOR THE FUTURE",46,1102,32,37,1.15625,NA,27,86.2,619,11.6,24.1,40,1.9,29.4,68.3,0.2,53,47,74,67.6,12.2,"Bronx",40.8369534260004,-73.8879617579997,NA,NA,NA,NA,NA,NA,NA,NA,NA,NA,NA,NA,NA,NA,NA,NA,NA
"233","12X278","PEACE AND DIVERSITY ACADEMY",34,1155,8,8,1,NA,21,78.8,231,13.9,17.3,12,1.7,43.7,53.7,0.9,45,55,96,49,15.6,"Bronx",40.8252260600004,-73.8939498889997,0,9.1,8.5,8.4,8.7,6.5,5.3,6.5,7,8.6,8.6,8.3,9.1,8.1,7.4,7.7,8.2
"234","12X388","PAN AMERICAN INTERNATIONAL HIGH SCHOOL AT MONROE",30,970,2.5,NA,NA,NA,15,100,406,92.9,0.2,1,0,0,99.8,0,51.5,48.5,NA,NA,NA,"Bronx",40.8313664900004,-73.8788232769996,0,8.5,8.1,7.8,7.8,6.7,5.2,6.4,6.9,6.8,7.1,7.6,8,7.3,6.8,7.3,7.6
"235","12X428","LEARNING TO WORK YABC AT MONROE ACADEMY",NA,NA,2.5,NA,NA,NA,NA,NA,NA,NA,NA,NA,NA,NA,NA,NA,NA,NA,NA,NA,NA,NA,NA,NA,NA,NA,NA,NA,NA,NA,NA,NA,NA,NA,NA,NA,NA,NA,NA,NA,NA
"236","12X446","ARTURO A. SCHOMBURG SATELLITE ACADEMY BRONX",14,1101,2.5,NA,NA,NA,NA,62.1,228,4.8,9.2,0,0.4,41.2,57,0,33.3,66.7,NA,NA,NA,NA,NA,NA,0,8.9,8.4,8.5,8.6,7.4,5.5,7,7,6.8,6,6.4,7,7.7,6.6,7.3,7.5
"237","12X478","THE CINEMA SCHOOL",NA,NA,2.5,NA,NA,NA,23,75.9,223,4,4,0,4.5,28.7,65,1.8,40.8,59.2,NA,NA,NA,"Bronx",40.8313645320005,-73.8783446749997,0,9,8.6,8.3,8.8,9,8.6,9.2,9.3,7.5,7.1,7.5,8.1,8.5,8.1,8.3,8.7
"238","12X479","BRONX CAREER AND COLLEGE PREPARATORY HIGH SCHOOL",NA,NA,2.5,NA,NA,NA,22,72.2,244,16.8,27.5,24,2.5,37.3,59.8,0.4,44.3,55.7,NA,NA,NA,"Bronx",40.8277639790004,-73.9003868129997,0,8.4,7.6,7.3,7.6,6.5,6.4,6.7,7.6,6.5,5.9,6.4,7.4,7.1,6.6,6.8,7.6
"239","12X480","BRONX REGIONAL HIGH SCHOOL",16,1181,2.5,NA,NA,NA,27,NA,NA,NA,NA,NA,NA,NA,NA,NA,NA,NA,107,26.2,6.5,NA,NA,NA,0,9,8.1,8,8.5,8.3,8,8.4,8.9,7.2,6,6.9,7.7,8.2,7.4,7.8,8.4
"240","12X550","HIGH SCHOOL OF WORLD CULTURES",42,939,2.5,NA,NA,NA,23,90.6,369,86.4,0.5,0,2.4,10.8,84.6,0.5,52,48,52,69.2,1.9,"Bronx",40.8313664900004,-73.8788232769996,0,9.1,7.5,7.6,7.7,7.5,6.4,7.3,7.3,7.8,6.2,7.5,7.8,8.1,6.7,7.5,7.6
"241","12X682","FANNIE LOU HAMER FREEDOM HIGH SCHOOL",72,1029,2.5,NA,NA,NA,22,81.1,477,11.5,26.2,41,0.2,30.6,68.8,0.2,54.1,45.9,119,60.5,7.6,"Bronx",40.8308071540004,-73.8860213159996,0,9.8,9.2,9.4,9.5,8.5,8.3,8.8,8.9,6.6,5.9,6.6,7.3,8.3,7.8,8.3,8.6
"242","12X684","WINGS ACADEMY",66,1114,20,27,1.35,NA,25,66.4,538,4.5,22.3,57,1.3,55,42.2,1.3,53.7,46.3,116,66.4,10.3,"Bronx",40.8418052210004,-73.8754177129996,0,7.8,7.3,7.2,7.5,6.2,6.5,6.9,7.5,5.9,5.3,6,6.9,6.7,6.4,6.7,7.3
"243","12X690","MONROE ACADEMY FOR BUSINESS/LAW",31,1138,7,7,1,NA,23,80.8,249,14.9,18.5,22,2.4,26.9,69.1,0.4,60.6,39.4,137,47.4,26.3,NA,NA,NA,0,6.4,6.7,6.4,6.9,5.9,4.5,4.5,6,5.5,5.3,5.5,6.2,5.9,5.5,5.5,6.4
"244","12X692","MONROE ACADEMY FOR VISUAL ARTS & DESIGN",43,1038,2.5,NA,NA,NA,22,87.3,466,28.8,20.8,43,0.9,20.4,77.5,1.3,52.6,47.4,112,47.3,11.6,"Bronx",40.8313664900004,-73.8788232769996,0,8.5,7.4,7.2,7.7,7.2,6.6,7.2,7.9,6.7,5.4,6.3,7.2,7.4,6.5,6.9,7.6
"245","13K265","DR. SUSAN S. MCKINNEY SECONDARY SCHOOL OF THE ARTS",29,1074,17,22,1.29411764705882,NA,21,71.1,443,4.3,20.3,42,0.5,72,24.6,1.8,37,63,81,81.5,3.7,"Brooklyn",40.6963437730004,-73.9757711019997,NA,NA,NA,NA,NA,NA,NA,NA,NA,NA,NA,NA,NA,NA,NA,NA,NA
"246","13K336","ACADEMY OF BUSINESS AND COMMUNITY DEVELOPMENT",9,1231,2.5,NA,NA,NA,21,59.1,225,3.1,21.3,11,2.7,88.9,7.1,0.4,99.6,0.4,NA,NA,NA,NA,NA,NA,NA,NA,NA,NA,NA,NA,NA,NA,NA,NA,NA,NA,NA,NA,NA,NA,NA
"247","13K350","URBAN ASSEMBLY HIGH SCHOOL OF MUSIC AND ART",52,1080,2.5,NA,NA,NA,22,74.1,431,4.6,22.5,39,1.9,73.3,22.7,0.9,42.7,57.3,96,71.9,7.3,"Brooklyn",40.6971747270004,-73.9849596889997,0,7.6,7.1,6.9,7,6.6,6.4,6.6,7.1,6.5,6.1,6.4,7.3,6.9,6.5,6.6,7.1
"248","13K412","BROOKLYN COMMUNITY HIGH SCHOOL OF COMMUNICATION, ARTS AND MEDIA",37,1114,21,21,1,NA,25,68.9,462,2.4,18,10,0.6,79.2,17.1,1.3,45.5,54.5,78,50,2.6,"Brooklyn",40.6925822560004,-73.9588731169997,0,8.2,7.5,7.3,7.7,6.7,6.7,6.9,7.8,6.1,6.6,6.6,7.5,7,6.9,7,7.6
"249","13K419","SCIENCE SKILLS CENTER HIGH SCHOOL FOR SCIENCE, TECHNOLOGY AND THE CREATIVE ARTS",92,1211,52,59,1.13461538461538,NA,27,60.7,517,7,13.7,21,7.2,77.8,12.2,2.1,56.1,43.9,231,59.3,7.4,"Brooklyn",40.6971747270004,-73.9849596889997,0,9.8,9.6,9.7,9.6,7,7.3,7.4,7.7,6,6.4,6.6,7.2,7.6,7.8,7.9,8.2
"250","13K430","BROOKLYN TECHNICAL HIGH SCHOOL",1277,1833,2117,3692,1.74397732640529,72.7789815817985,32,50.7,5332,0.1,0.5,0,60.3,10.2,7.9,21.3,58.3,41.7,1097,91.4,0.2,"Brooklyn",40.6881074230005,-73.9767450719996,0,7.9,6.9,7.3,7.4,7.8,6.3,7,7.5,7,5.9,6.7,7.6,7.5,6.4,7,7.5
"251","13K439","BROOKLYN INTERNATIONAL HIGH SCHOOL",90,981,2.5,NA,NA,NA,20,80,367,83.1,0,NA,42.5,20.2,28.6,8.7,48.2,51.8,115,81.7,4.3,"Brooklyn",40.6971747270004,-73.9849596889997,0,8.7,8.1,8,8.2,8.6,7.5,8.5,9,7.9,7.2,7.8,8,8.4,7.6,8.1,8.4
"252","13K483","THE URBAN ASSEMBLY SCHOOL FOR LAW AND JUSTICE",105,1206,31,57,1.83870967741935,42.1052631578947,22,60.5,450,0.9,13.3,8,0.9,79.1,17.1,1.1,39.6,60.4,109,84.4,1.8,"Brooklyn",40.6946201190004,-73.9886239449996,0,8.7,8.1,8,8.5,7.3,6.9,7.4,8,6.8,6.3,6.6,7.8,7.6,7.1,7.3,8.1
"253","13K499","ACORN COMMUNITY HIGH SCHOOL",72,1116,64,95,1.484375,NA,27,81,731,2.9,18.6,52,1.2,84.7,12.2,0.8,55.8,44.2,169,73.4,8.3,"Brooklyn",40.6785089140005,-73.9620673059997,0,7.6,7.3,7.1,7.3,6,6.9,6.8,7.4,6,5.3,6.1,6.7,6.5,6.5,6.7,7.1
"254","13K509","FREEDOM ACADEMY HIGH SCHOOL",29,1193,74,89,1.2027027027027,NA,23,68,218,1.8,14.2,7,1.4,82.1,15.1,0.9,43.6,56.4,58,62.1,5.2,NA,NA,NA,0,7.3,7.1,6.8,7,6.4,6.1,6.5,6.9,5.9,5.8,5.9,7,6.5,6.3,6.4,7
"255","13K527","URBAN ASSEMBLY INSTITUTE OF MATH AND SCIENCE FOR YOUNG WOMEN",NA,NA,2.5,NA,NA,NA,25,62.2,469,1.5,13.2,4,5.1,79.3,11.7,2.6,0,100,NA,NA,NA,"Brooklyn",40.6946201190004,-73.9886239449996,NA,NA,NA,NA,NA,NA,NA,NA,NA,NA,NA,NA,NA,NA,NA,NA,NA
"256","13K553","BROOKLYN ACADEMY HIGH SCHOOL",8,1197,2.5,NA,NA,NA,22,NA,NA,NA,NA,NA,NA,NA,NA,NA,NA,NA,55,16.4,20,NA,NA,NA,0,9.4,8.8,8.5,9.3,8.2,6.4,6.9,7.8,8,6.5,7.2,7.8,8.5,7.2,7.5,8.3
"257","13K575","BEDFORD STUYVESANT PREPARATORY HIGH SCHOOL",13,1183,2.5,NA,NA,NA,18,74.6,152,0.7,0,NA,0,83.6,12.5,2,35.5,64.5,52,28.8,3.8,NA,NA,NA,0,9.3,8.7,8.3,8.6,7.4,6.2,6.8,7.8,8,7.6,8,8.1,8.2,7.5,7.7,8.2
"258","13K595","BEDFORD ACADEMY HIGH SCHOOL",89,1312,43,57,1.32558139534884,28.0701754385965,22,46.7,367,1.1,4.1,1,2.7,89.4,7.1,0.3,49,51,76,92.1,3.9,"Brooklyn",40.6853812690004,-73.9542675999996,0,9.3,8.2,8.1,8.3,7.6,7.9,7.3,7.9,6.6,6,6.7,7.7,7.8,7.4,7.4,8
"259","13K605","GEORGE WESTINGHOUSE CAREER AND TECHNICAL EDUCATION HIGH SCHOOL",85,1189,35,35,1,NA,27,65,927,1.9,14.1,60,2.8,79.8,15.3,1.3,75.5,24.5,246,52,11,"Brooklyn",40.6949444070004,-73.9860353239997,0,7.9,7.3,7.2,7.2,6.5,6.4,7,7.1,5.5,5.4,5.8,6.8,6.6,6.4,6.7,7
"260","13K616","BROOKLYN HIGH SCHOOL FOR LEADERSHIP AND COMMUNITY SERVICE",NA,NA,2.5,NA,NA,NA,18,63.9,212,2.4,7.5,2,0.5,68.4,28.3,1.4,49.5,50.5,88,8,26.1,NA,NA,NA,0,9,8.4,7.8,8.5,8.2,7.7,8.8,9.3,7.7,6.5,7.4,7.8,8.3,7.5,8,8.5
"261","13K670","BENJAMIN BANNEKER ACADEMY",185,1391,132,149,1.12878787878788,41.6107382550336,28,47.4,895,0,3,10,2.7,87,8.8,0.4,46.1,53.9,234,92.3,2.6,"Brooklyn",40.6956624130004,-73.9692860769997,0,8.4,6.9,7.4,7.7,7.3,6.1,6.8,7,6.6,5.7,6.6,7.4,7.4,6.2,7,7.3
"262","13K674","CITY POLYTECHNIC HIGH SCHOOL OF ENGINEERING, ARCHITECTURE, AND TECHNOLOGY",20,1353,2.5,NA,NA,NA,21,61.9,335,3.6,15.8,24,7.5,58.2,26.3,4.5,79.4,20.6,NA,NA,NA,"Brooklyn",40.6949444070004,-73.9860353239997,0,8.2,8,7.8,8.2,6.6,6.9,6,7.1,6.4,6,6.9,7.4,7.1,7,6.9,7.6
"263","14K071","JUAN MOREL CAMPOS SECONDARY SCHOOL",102,1085,16,16,1,75,30,76.6,865,24.9,26.7,113,0.2,15.3,80.6,3.4,54.7,45.3,100,40,18,"Brooklyn",40.703577361,-73.9532373119997,NA,NA,NA,NA,NA,NA,NA,NA,NA,NA,NA,NA,NA,NA,NA,NA,NA
"264","14K322","FOUNDATIONS ACADEMY",NA,NA,42,53,1.26190476190476,NA,21,78.7,141,5.7,28.4,21,1.4,66.7,29.8,1.4,56.7,43.3,60,68.3,3.3,"Brooklyn",40.6970610830004,-73.9466752049997,0,8.4,7.8,7.6,7.7,6,5.7,5.9,6.5,6.9,6.4,7.2,7.7,7.1,6.6,6.9,7.3
"265","14K404","ACADEMY FOR YOUNG WRITERS",68,1125,2.5,NA,NA,NA,23,65.3,400,2.5,12.7,6,0.7,63.5,32.2,3,24.2,75.7,78,76.9,3.8,NA,NA,NA,0,8.2,7.7,7.5,8,7.2,6.9,7,8.1,6.5,6.2,6.4,7.4,7.3,6.9,7,7.8
"266","14K449","BROOKLYN LATIN SCHOOL, THE",72,1740,2.5,NA,NA,NA,23,53.3,468,0.4,1.1,0,36.8,26.7,17.9,14.5,54.9,45.1,51,92.2,0,"Brooklyn",40.7098999600005,-73.9436599349996,0,8.8,7.9,7.6,8.4,8.5,7.2,7.7,8.8,7.5,7,6.9,8.2,8.2,7.4,7.4,8.5
"267","14K454","GREEN SCHOOL: AN ACADEMY FOR ENVIRONMENTAL CAREERS",41,1189,2.5,NA,NA,NA,24,72.9,392,11.5,15.3,8,2,47.7,46.9,2.6,46.2,53.8,96,54.2,15.6,"Brooklyn",40.7098999600005,-73.9436599349996,0,8.4,8.1,7.8,8.2,7.7,6.8,7.8,8,6.8,6.4,7.1,7.9,7.7,7.1,7.6,8
"268","14K474","PROGRESS HIGH SCHOOL FOR PROFESSIONAL CAREERS",144,1114,50,66,1.32,NA,26,84.8,1068,16.1,13,28,0.7,32.6,65.4,1,48.5,51.5,207,64.3,6.3,"Brooklyn",40.7119631130004,-73.9404343669996,0,7.8,7.3,7.2,7.4,7.2,6.6,7,7.5,6.4,5.6,6.4,7.2,7.1,6.5,6.9,7.4
"269","14K477","SCHOOL FOR LEGAL STUDIES",134,1204,24,27,1.125,NA,27,65.6,759,5.7,13,9,0.9,57.7,39.3,1.7,45.8,54.2,146,58.9,16.4,"Brooklyn",40.7119631130004,-73.9404343669996,0,7.2,7,7.1,7.3,7,6.8,7.1,7.6,5.4,5.6,5.7,6.7,6.5,6.5,6.6,7.2
"270","14K478","THE HIGH SCHOOL FOR ENTERPRISE, BUSINESS AND TECHNOLOGY",142,1215,94,129,1.37234042553191,14.7286821705426,29,74.2,976,9.9,13.2,20,3.2,39.3,55.4,1.9,65.7,34.3,161,83.2,3.1,"Brooklyn",40.7119631130004,-73.9404343669996,0,8.5,7.9,7.7,7.9,7.2,6.2,6.7,7.2,6,5.6,6.1,6.9,7.2,6.5,6.9,7.3
"271","14K488","BROOKLYN PREPARATORY HIGH SCHOOL",42,1090,28,46,1.64285714285714,15.2173913043478,23,80.3,400,2.7,18.8,8,1.7,58.7,37.7,1,47.7,52.2,75,78.7,6.7,"Brooklyn",40.7150375510004,-73.9546499589997,0,8.1,7.4,7.5,7.7,6.9,6.1,6.8,7.6,6.4,6.1,6.4,7.3,7.2,6.5,6.9,7.6
"272","14K558","WILLIAMSBURG HIGH SCHOOL FOR ARCHITECTURE AND DESIGN",72,1112,30,48,1.6,NA,25,82.6,500,7,17.6,14,1.4,38.4,57.2,2.2,72.6,27.4,97,82.5,7.2,"Brooklyn",40.7150375510004,-73.9546499589997,0,8.6,8.1,8,8.3,8.4,8.3,8.6,8.9,7.8,6.5,7.6,8.3,8.3,7.7,8.1,8.5
"273","14K561","WILLIAMSBURG PREPARATORY SCHOOL",113,1187,31,41,1.32258064516129,NA,25,81,577,2.8,12.7,4,1.6,25.5,61.5,11.1,51,49,108,86.1,7.4,"Brooklyn",40.7150375510004,-73.9546499589997,0,9.4,9.1,8.8,9.2,8.1,8.3,8,8.5,7.2,6.3,7,7.9,8.2,7.9,7.9,8.6
"274","14K586","LYONS COMMUNITY SCHOOL",31,1103,2.5,NA,NA,NA,21,78.6,527,14.6,22,23,1.1,41.7,54.6,2.1,53.7,46.3,4,NA,NA,"Brooklyn",40.7098999600005,-73.9436599349996,NA,NA,NA,NA,NA,NA,NA,NA,NA,NA,NA,NA,NA,NA,NA,NA,NA
"275","14K610","AUTOMOTIVE HIGH SCHOOL",94,1093,2.5,NA,NA,NA,26,67.1,723,4.7,30.3,70,1.4,66.1,30.2,1.7,95.6,4.4,233,54.5,14.2,"Brooklyn",40.7226426400004,-73.9525830449996,0,7.4,7.7,7.4,7.5,5.4,4.6,5.3,6.2,5.3,5.6,6.1,6.9,6,6,6.3,6.9
"276","14K632","FRANCES PERKINS ACADEMY",12,1122,2.5,NA,NA,NA,17,86.9,173,9.8,24.9,6,0,64.7,31.2,4,76.9,23.1,NA,NA,NA,"Brooklyn",40.7226426400004,-73.9525830449996,0,9,8.4,8.4,7.9,5.6,4.2,6.2,6.7,7.1,7,7.2,7.4,7.2,6.5,7.2,7.3
"277","14K685","EL PUENTE ACADEMY FOR PEACE AND JUSTICE",28,1035,2.5,NA,NA,NA,22,80.4,218,17,23.4,10,1.8,10.1,87.6,0.5,42.7,57.3,41,68.3,2.4,"Brooklyn",40.7057659310005,-73.9557285719997,0,9.1,7.9,7.9,8.1,8.6,7.8,8.8,8.7,7.8,6.4,7.2,7.7,8.5,7.4,8,8.2
"278","14K923","AUTOMOTIVE HIGH SCHOOL YABC",NA,NA,2.5,NA,NA,NA,NA,NA,NA,NA,NA,NA,NA,NA,NA,NA,NA,NA,NA,NA,NA,NA,NA,NA,NA,NA,NA,NA,NA,NA,NA,NA,NA,NA,NA,NA,NA,NA,NA,NA,NA
"279","15K429","BROOKLYN SCHOOL FOR GLOBAL STUDIES",52,1111,2.5,NA,NA,NA,25,68.2,354,5.9,25.4,30,2.3,54.5,39,3.4,56.2,43.8,91,52.7,3.3,"Brooklyn",40.6854518060004,-73.9934914649996,NA,NA,NA,NA,NA,NA,NA,NA,NA,NA,NA,NA,NA,NA,NA,NA,NA
"280","15K448","BROOKLYN SECONDARY SCHOOL FOR COLLABORATIVE STUDIES",76,1179,2.5,NA,NA,NA,23,57.2,692,4.5,29.2,24,4.3,34.2,48.1,12.6,59.1,40.9,76,84.2,3.9,"Brooklyn",40.6798639980005,-74.0014822579997,NA,NA,NA,NA,NA,NA,NA,NA,NA,NA,NA,NA,NA,NA,NA,NA,NA
"281","15K462","SECONDARY SCHOOL FOR LAW",59,1203,2.5,NA,NA,NA,26,76.1,473,6.3,12.7,30,2.5,62.4,29.6,5.5,44.2,55.8,89,61.8,4.5,"Brooklyn",40.6695981750004,-73.9792555219997,NA,NA,NA,NA,NA,NA,NA,NA,NA,NA,NA,NA,NA,NA,NA,NA,NA
"282","15K463","SECONDARY SCHOOL FOR JOURNALISM",58,1169,22,22,1,NA,24,77,336,16.7,13.4,24,9.2,42,43.2,5.4,42.3,57.7,94,54.3,7.4,"Brooklyn",40.6695981750004,-73.9792555219997,NA,NA,NA,NA,NA,NA,NA,NA,NA,NA,NA,NA,NA,NA,NA,NA,NA
"283","15K464","PARK SLOPE COLLEGIATE",72,1175,2.5,NA,NA,NA,27,78,394,9.6,16.5,48,8.6,33.2,51.8,5.3,52.8,47.2,87,58.6,6.9,"Brooklyn",40.6695981750004,-73.9792555219997,NA,NA,NA,NA,NA,NA,NA,NA,NA,NA,NA,NA,NA,NA,NA,NA,NA
"284","15K497","SCHOOL FOR INTERNATIONAL STUDIES",64,1212,30,34,1.13333333333333,NA,24,68.1,486,14.6,15.2,39,6.2,40.9,38.9,14,50.8,49.2,65,63.1,10.8,"Brooklyn",40.6854518060004,-73.9934914649996,NA,NA,NA,NA,NA,NA,NA,NA,NA,NA,NA,NA,NA,NA,NA,NA,NA
"285","15K519","COBBLE HILL SCHOOL OF AMERICAN STUDIES",77,1185,25,36,1.44,NA,27,73.4,663,7.5,18.9,62,5.1,71.5,21,2.3,43.9,56.1,142,63.4,14.1,"Brooklyn",40.6845791370004,-73.9910931629997,0,8,7.5,7.4,7.8,6,4.3,5.5,6.4,5.6,5.7,5.7,6.7,6.5,5.8,6.2,7
"286","15K520","PACIFIC HIGH SCHOOL",9,993,2.5,NA,NA,NA,20,NA,NA,NA,NA,NA,NA,NA,NA,NA,NA,NA,71,12.7,12.7,NA,NA,NA,0,8.3,7.9,7.2,8.5,8.5,5.7,9,9,NA,NA,NA,NA,8.3,6.7,7.9,8.6
"287","15K529","WEST BROOKLYN COMMUNITY HIGH SCHOOL",NA,NA,2.5,NA,NA,NA,16,NA,NA,NA,NA,NA,NA,NA,NA,NA,NA,NA,107,10.3,9.3,NA,NA,NA,0,9.3,8.7,8.2,8.8,7.9,8.3,8.1,8.3,8.3,7.6,8,8.4,8.5,8.2,8.1,8.5
"288","15K530","METROPOLITAN CORPORATE ACADEMY HIGH SCHOOL",28,1101,14,14,1,NA,22,68.2,186,1.1,17.2,16,0.5,80.6,16.7,0,50,50,84,41.7,14.3,NA,NA,NA,0,8.3,7.4,7.3,7.6,7.2,6.9,6.8,7.7,6.8,6.1,6.5,7.2,7.5,6.8,6.9,7.5
"289","15K656","BROOKLYN HIGH SCHOOL OF THE ARTS",141,1258,2.5,NA,NA,NA,27,59.3,678,0.1,7.2,14,1.8,76.5,19,2.2,33.9,66.1,100,72,2,"Brooklyn",40.6836539900005,-73.9804727509996,0,8.3,7.4,7.4,7.5,7.2,6.4,6.9,7.1,6.6,5.8,6.6,7.5,7.3,6.5,6.9,7.4
"290","15K667","SUNSET PARK HIGH SCHOOL",NA,NA,2.5,NA,NA,NA,27,79.9,988,14.4,22.3,28,4.7,7.8,80.8,6.7,50.7,49.3,NA,NA,NA,"Brooklyn",40.6559528440004,-74.0054973249996,0,8.3,7.9,7.9,8.1,7,7,7.8,8.4,6.4,6.4,6.9,7.3,7.2,7.1,7.5,7.9
"291","15K698","SOUTH BROOKLYN COMMUNITY HIGH SCHOOL",8,1271,2.5,NA,NA,NA,19,74,149,2,6,2,0.7,21.5,72.5,4,45,55,55,12.7,12.7,NA,NA,NA,0,8.9,8.1,7.4,8.4,6.9,7.4,7.4,7.8,7.8,6.9,7.3,8.1,7.9,7.5,7.4,8.1
"292","16K393","FREDERICK DOUGLASS ACADEMY IV SECONDARY SCHOOL",20,1068,2.5,NA,NA,NA,22,71,439,1.4,17.1,7,0.9,83.6,14.1,0.5,48.7,51.3,71,77.5,1.4,"Brooklyn",40.6921337040004,-73.9315031719996,NA,NA,NA,NA,NA,NA,NA,NA,NA,NA,NA,NA,NA,NA,NA,NA,NA
"293","16K455","BOYS AND GIRLS HIGH SCHOOL",131,1097,22,32,1.45454545454545,NA,27,61.7,1631,2.5,20.5,167,0.5,90,7.8,0.7,61.7,38.3,530,38.9,19.2,"Brooklyn",40.6794330450004,-73.9324317699997,0,7.1,7.3,7.4,7.1,5.9,5.8,6.5,6.7,6.1,6,6.7,7.2,6.4,6.4,6.8,7
"294","16K498","BROOKLYN HIGH SCHOOL FOR LAW AND TECHNOLOGY",46,1092,49,80,1.63265306122449,NA,27,74.5,405,4.7,20.7,44,1,72.8,24.9,0,51.6,48.4,NA,NA,NA,"Brooklyn",40.6889255420004,-73.9210840989996,0,8.5,7.3,7.2,7.5,7,7.3,7.5,8,6.4,5.8,6.2,7.1,7.3,6.8,7,7.5
"295","16K594","GOTHAM PROFESSIONAL ARTS ACADEMY",36,1093,2.5,NA,NA,NA,NA,58.6,294,2.4,17.3,10,1,78.6,19.4,0.7,43.2,56.8,3,NA,NA,"Brooklyn",40.6804554730004,-73.9221960919996,0,8.6,9,8.2,9,4.9,5,5.6,6.3,5.8,5.9,6.6,7.5,6,6.2,6.5,7.3
"296","16K688","THE BROOKLYN ACADEMY OF GLOBAL FINANCE",NA,NA,2.5,NA,NA,NA,21,57.4,159,6.3,20.8,19,1.9,74.2,20.8,2.5,51.6,48.4,NA,NA,NA,"Brooklyn",40.6915377650005,-73.9337257819997,0,6,5.8,5.7,6.2,3.9,1.9,3.8,3.6,4.9,5.8,5.4,6.8,4.9,4.5,5,5.6
"297","17K382","ACADEMY FOR COLLEGE PREPARATION AND CAREER EXPLORATION: A COLLEGE BOARD SCHOOL",59,1139,64,82,1.28125,8.53658536585366,25,57,565,5,10.8,9,0.2,92,6.7,1.1,53.8,46.2,69,84.1,4.3,"Brooklyn",40.6494396750004,-73.9584311979996,NA,NA,NA,NA,NA,NA,NA,NA,NA,NA,NA,NA,NA,NA,NA,NA,NA
"298","17K408","ACADEMY OF HOSPITALITY AND TOURISM",57,1045,2.5,NA,NA,NA,25,65.5,319,12.9,15.4,4,1.6,84.3,12.9,0.9,49.8,50.2,81,69.1,3.7,"Brooklyn",40.6494396750004,-73.9584311979996,0,7,7.6,7.6,7.8,7.4,8.4,8.7,8.9,5.5,5.8,6.4,7.3,6.6,7.3,7.6,8
"299","17K467","ERASMUS YABC",NA,NA,2.5,NA,NA,NA,NA,NA,NA,NA,NA,NA,NA,NA,NA,NA,NA,NA,NA,NA,NA,NA,NA,NA,NA,NA,NA,NA,NA,NA,NA,NA,NA,NA,NA,NA,NA,NA,NA,NA,NA
"300","17K489","W.E.B. DUBOIS ACADEMIC HIGH SCHOOL",7,1092,2.5,NA,NA,NA,22,70.3,199,0.5,11.1,0,1,93.5,4,0.5,45.7,54.3,81,19.8,34.6,NA,NA,NA,0,8.7,7.9,8,8.1,6.3,6.9,6.9,7.3,6.7,5.9,6.9,7.5,7.2,6.9,7.3,7.6
"301","17K524","INTERNATIONAL HIGH SCHOOL AT PROSPECT HEIGHTS",71,913,2.5,NA,NA,NA,24,80.9,401,91,1,0,28.4,29.2,27.9,14.2,59.1,40.9,84,39.3,8.3,"Brooklyn",40.6702989070004,-73.9616478759996,0,8.6,7.9,7.7,8.1,7.7,6.2,7.4,8,7.4,6.8,7.3,7.7,7.9,7,7.5,7.9
"302","17K528","THE HIGH SCHOOL FOR GLOBAL CITIZENSHIP",46,1176,20,34,1.7,NA,26,68.7,343,5.2,13.4,20,1.5,89.2,7.3,1.5,50.1,49.9,104,61.5,14.4,"Brooklyn",40.6702989070004,-73.9616478759996,0,7.4,7.5,7,7.3,5.2,4.3,5.4,6.1,6.1,6,6.1,6.8,6.2,5.9,6.1,6.8
"303","17K531","SCHOOL FOR HUMAN RIGHTS, THE",35,1088,2.5,NA,NA,NA,31,73.2,386,6.2,15,9,0.8,88.9,8.3,1.6,51.6,48.4,60,81.7,6.7,"Brooklyn",40.659517006,-73.9425464989997,NA,NA,NA,NA,NA,NA,NA,NA,NA,NA,NA,NA,NA,NA,NA,NA,NA
"304","17K533","SCHOOL FOR DEMOCRACY AND LEADERSHIP",38,1153,2.5,NA,NA,NA,23,68.3,406,3.7,14.5,20,0.5,89.4,8.4,1.5,52,48,74,0,8.1,"Brooklyn",40.659517006,-73.9425464989997,NA,NA,NA,NA,NA,NA,NA,NA,NA,NA,NA,NA,NA,NA,NA,NA,NA
"305","17K537","HIGH SCHOOL FOR YOUTH AND COMMUNITY DEVELOPMENT AT ERASMUS",73,1027,21,37,1.76190476190476,NA,23,60.9,385,9.1,15.8,8,1,87.3,9.1,1,61.6,38.4,100,56,8,"Brooklyn",40.6494396750004,-73.9584311979996,0,7.1,7.5,7.3,7.8,6.3,6.5,7.5,8.1,5.5,5.7,6,6.8,6.3,6.6,6.9,7.6
"306","17K539","HIGH SCHOOL FOR SERVICE & LEARNING AT ERASMUS",61,1105,2.5,NA,NA,NA,28,65.3,422,8.8,19.2,12,2.1,87,9,1.7,63.3,36.7,116,77.6,12.9,"Brooklyn",40.6494396750004,-73.9584311979996,0,7.6,7.7,7.4,8,7.6,8,8.2,8.7,5.5,5.6,6.2,7.1,6.9,7.1,7.3,7.9
"307","17K543","SCIENCE, TECHNOLOGY AND RESEARCH EARLY COLLEGE HIGH SCHOOL AT ERASMUS",69,1360,2.5,NA,NA,NA,23,63.3,521,0,2.3,0,3.1,83.9,9.4,1.3,53,47,76,98.7,0,"Brooklyn",40.6494396750004,-73.9584311979996,NA,NA,NA,NA,NA,NA,NA,NA,NA,NA,NA,NA,NA,NA,NA,NA,NA
"308","17K544","INTERNATIONAL ARTS BUSINESS SCHOOL",54,1146,2.5,NA,NA,NA,23,69.3,390,7.9,17.4,24,0.8,86.9,10,1.3,47.9,52.1,108,49.1,6.5,NA,NA,NA,0,7.1,7,7,7.1,5.1,5.3,5.1,5.5,5.4,5.5,5.8,6.6,5.9,5.9,6,6.4
"309","17K546","HIGH SCHOOL FOR PUBLIC SERVICE: HEROES OF TOMORROW",79,1273,106,130,1.22641509433962,10,23,70.3,417,0.5,4.1,1,3.6,82.5,12.2,0.7,24.9,75.1,93,94.6,0,"Brooklyn",40.659517006,-73.9425464989997,0,8.7,8,7.9,8.6,7.9,6.5,7.2,7.7,6.4,6,6.5,7.6,7.7,6.8,7.2,8
"310","17K547","BROOKLYN ACADEMY OF SCIENCE AND THE ENVIRONMENT",63,1143,49,59,1.20408163265306,NA,21,80.9,471,6.8,11.9,12,4,79.6,14.2,1.5,54.4,45.6,110,69.1,5.5,"Brooklyn",40.6702989070004,-73.9616478759996,0,7.8,7.7,7.6,7.7,5.8,5.6,6.5,6.6,5.7,5.9,6.1,7,6.4,6.4,6.7,7.1
"311","17K548","BROOKLYN SCHOOL FOR MUSIC & THEATRE",48,1151,37,41,1.10810810810811,21.9512195121951,26,60.5,412,0.5,12.1,3,1,82.8,15.3,1,32.8,67.2,88,73.9,2.3,"Brooklyn",40.6702989070004,-73.9616478759996,0,7.2,7.1,7.1,7.4,6.5,6.3,6.9,7.1,5.9,6.1,6.6,7.4,6.5,6.5,6.9,7.3
"312","17K568","BROWNSVILLE ACADEMY HIGH SCHOOL",16,1063,2.5,NA,NA,NA,18,NA,NA,NA,NA,NA,NA,NA,NA,NA,NA,NA,75,12,20,NA,NA,NA,0,9.4,8.8,8.9,9.1,8.1,8.1,8.3,8.7,8.5,7.5,8.5,8.9,8.7,8.2,8.6,8.9
"313","17K590","MEDGAR EVERS COLLEGE PREPARATORY SCHOOL",165,1436,272,507,1.86397058823529,16.9625246548323,28,59.1,1104,0,0.5,0,0.9,95.7,2.8,0,41.8,58.2,156,93.6,3.8,"Brooklyn",40.6671620820004,-73.9508579549997,NA,NA,NA,NA,NA,NA,NA,NA,NA,NA,NA,NA,NA,NA,NA,NA,NA
"314","17K600","CLARA BARTON HIGH SCHOOL",259,1251,135,211,1.56296296296296,29.8578199052133,29,73,1608,8.3,12.7,133,1.8,91.2,5.8,0.7,23.8,76.2,488,60.7,12.9,"Brooklyn",40.6702705570004,-73.9616548239997,0,7.4,6.8,7.1,7.1,7.3,5.9,6.6,7.2,5.9,5.4,6,6.9,6.9,6,6.5,7.1
"315","17K625","PAUL ROBESON HIGH SCHOOL",53,1083,50,51,1.02,NA,25,77.9,326,3.4,25.5,31,0.9,87.1,9.5,1.5,54.9,45.1,292,46.6,12.7,NA,NA,NA,0,8,7.8,7.7,7.8,5.6,5.3,5.9,6.4,6.4,6,6.7,7.4,6.7,6.4,6.8,7.2
"316","17K751","ACADEMY FOR HEALTH CAREERS",NA,NA,2.5,NA,NA,NA,NA,87.7,138,8,15.2,12,3.6,81.2,13.8,1.4,27.5,72.5,NA,NA,NA,"Brooklyn",40.6754023070004,-73.9388811759997,NA,NA,NA,NA,NA,NA,NA,NA,NA,NA,NA,NA,NA,NA,NA,NA,NA
"317","18K563","IT TAKES A VILLAGE ACADEMY",56,963,2.5,NA,NA,NA,21,76.5,382,30.4,11.5,3,1.8,92.9,4.5,0.5,49,51,4,NA,NA,"Brooklyn",40.6486636630004,-73.9218987619997,0,8.3,8.1,8.1,8.1,8,7.7,8.2,8.8,6.1,5.8,6.9,7.4,7.5,7.2,7.7,8.1
"318","18K566","BROOKLYN GENERATION SCHOOL",29,1145,2.5,NA,NA,NA,20,60.5,331,5.7,19.6,10,1.5,88.8,8.5,0.9,61,39,4,NA,NA,"Brooklyn",40.6326274300004,-73.9177979889997,0,8.2,7.9,7.6,8,5.5,4,5.5,5.9,6,5.7,5.9,6.8,6.6,5.9,6.3,6.9
"319","18K567","BROOKLYN THEATRE ARTS HIGH SCHOOL",54,1118,2.5,NA,NA,NA,26,67.8,382,5,18.6,7,0.5,84.3,12.8,2.1,36.1,63.9,3,NA,NA,"Brooklyn",40.6326274300004,-73.9177979889997,0,8.2,7.3,7.4,7.6,6.8,7,7.2,7.9,5.8,6,6.4,7,6.9,6.8,7,7.5
"320","18K569","KURT HAHN EXPEDITIONARY LEARNING SCHOOL",43,1092,2.5,NA,NA,NA,26,62.6,294,9.5,20.1,6,0,88.1,8.8,1.7,64.3,35.7,5,NA,NA,"Brooklyn",40.6486636630004,-73.9218987619997,0,8,7.7,7.6,7.7,6.2,7.3,7.5,7.8,6.3,5.9,6.4,7,6.8,7,7.1,7.5
"321","18K576","VICTORY COLLEGIATE HIGH SCHOOL",63,1143,2.5,NA,NA,NA,25,64.1,325,5.2,16.6,8,0.3,93.5,5.8,0,48.9,51.1,3,NA,NA,"Brooklyn",40.6326274300004,-73.9177979889997,0,8.4,7.5,7.5,8,7.5,7,7.4,8.7,6.6,6.3,6.7,7.6,7.5,6.9,7.2,8.1
"322","18K578","BROOKLYN BRIDGE ACADEMY",17,1097,2.5,NA,NA,NA,17,65,217,2.8,11.1,3,0.9,88,9.2,0.9,58.5,41.5,87,14.9,16.1,NA,NA,NA,0,8,7.9,7.7,8.3,5.8,4.5,5.8,6.1,7.1,7,7.3,7.9,7,6.5,6.9,7.4
"323","18K589","ARTS & MEDIA PREPARATORY ACADEMY",48,1080,2.5,NA,NA,NA,20,54.4,293,3.4,17.4,7,0.7,89.4,9.6,0,47.4,52.6,4,NA,NA,"Brooklyn",40.6584570300004,-73.9290331739996,0,8.3,7.5,7.3,7.9,6.7,5.9,6.4,6.9,6.2,6.2,6.4,7.2,7.1,6.5,6.7,7.3
"324","18K617","HIGH SCHOOL FOR INNOVATION IN ADVERTISING AND MEDIA",37,1183,2.5,NA,NA,NA,20,61.3,310,8.1,18.1,15,1.3,85.8,10.6,1.3,66.5,33.5,NA,NA,NA,"Brooklyn",40.6418442680004,-73.8986872909996,0,8.4,7.9,7.7,8.2,7.2,6.1,6.8,6.9,6.6,6.4,7,7.7,7.4,6.8,7.2,7.6
"325","18K629","CULTURAL ACADEMY FOR THE ARTS AND SCIENCES",33,1169,2.5,NA,NA,NA,18,71.6,299,7.7,18.4,7,1.3,86.6,11.4,0.7,51.5,48.5,2,NA,NA,"Brooklyn",40.6486636630004,-73.9218987619997,0,8.3,7.6,7.5,8,6.8,6.7,7.5,7.5,6,5.8,5.9,6.6,7,6.7,7,7.4
"326","18K633","HIGH SCHOOL FOR MEDICAL PROFESSIONS",75,1159,2.5,NA,NA,NA,27,75.2,460,3.3,10.4,7,1.7,85,12.4,0.2,21.5,78.5,NA,NA,NA,"Brooklyn",40.6418442680004,-73.8986872909996,0,8.3,8.2,7.9,8.2,7.1,7.2,6.9,7.3,6.3,6.3,6.3,7.6,7.2,7.2,7,7.7
"327","18K635","OLYMPUS ACADEMY",7,1140,2.5,NA,NA,NA,15,51.1,203,1.5,9.4,0,1,86.2,11.3,1,50.2,49.8,101,16.8,8.9,NA,NA,NA,0,7.8,7.1,6.6,6.8,7.3,6.7,7.8,8.6,8,6.3,7.9,8.4,7.7,6.6,7.6,8.1
"328","18K637","ACADEMY FOR CONSERVATION AND THE ENVIRONMENT",35,1111,2.5,NA,NA,NA,20,54.5,274,6.9,16.8,10,2.2,83.9,12,1.5,54.7,45.3,NA,NA,NA,"Brooklyn",40.6326274300004,-73.9177979889997,0,8.4,7.9,7.6,8.2,7.2,5.8,7,7.6,6.1,5.9,6,7.2,7.2,6.6,6.9,7.7
"329","18K642","URBAN ACTION ACADEMY",40,1135,2.5,NA,NA,NA,21,76.4,305,11.1,12.5,9,2.3,82.3,10.5,3.9,62.6,37.4,NA,NA,NA,"Brooklyn",40.6418442680004,-73.8986872909996,0,8.2,7.3,7.1,7.7,6.8,5.7,5.9,6,6.1,5.9,6.6,7.2,7,6.3,6.5,7
"330","18K673","EAST BROOKLYN COMMUNITY HIGH SCHOOL",12,1191,2.5,NA,NA,NA,19,56.7,203,0.5,8.9,1,1,88.7,9.4,0.5,52.2,47.8,69,4.3,8.7,NA,NA,NA,0,8.9,8.5,8.4,9,7.4,6.4,8.1,8.4,7.8,7.3,7.7,8,8,7.4,8.1,8.5
"331","19K409","EAST NEW YORK FAMILY ACADEMY",54,1242,2.5,NA,NA,NA,19,72.2,433,0.5,2.1,0,0.5,67.2,30.3,1.4,43.2,56.8,91,79.1,3.3,"Brooklyn",40.6606370240004,-73.8863416499996,NA,NA,NA,NA,NA,NA,NA,NA,NA,NA,NA,NA,NA,NA,NA,NA,NA
"332","19K420","FRANKLIN K. LANE HIGH SCHOOL",NA,NA,10,10,1,NA,20,64.3,112,38.4,12.5,2,4.5,11.6,82.1,1.8,51.8,48.2,494,38.3,23.5,NA,NA,NA,0,7.5,7.6,7.6,7.9,6.2,5.6,5.9,6.6,6.3,5.5,6.4,7.1,6.6,6.2,6.6,7.2
"333","19K431","THOMAS JEFFERSON YABC",NA,NA,2.5,NA,NA,NA,NA,NA,NA,NA,NA,NA,NA,NA,NA,NA,NA,NA,NA,NA,NA,NA,NA,NA,NA,NA,NA,NA,NA,NA,NA,NA,NA,NA,NA,NA,NA,NA,NA,NA,NA
"334","19K502","FDNY HIGH SCHOOL FOR FIRE AND LIFE SAFETY",37,1023,2.5,NA,NA,NA,24,70.9,381,5,21,11,1,73.8,23.4,1.6,81.1,18.9,87,55.2,23,"Brooklyn",40.6675531110004,-73.8948005369996,0,7,7.5,7.1,7.4,5,5.2,5.2,5.6,5.4,5.4,5.7,6.8,5.8,6,6,6.6
"335","19K504","HIGH SCHOOL FOR CIVIL RIGHTS",47,1054,12,18,1.5,NA,26,60.5,401,9.7,16.2,14,2,74.3,22.2,1,54.4,45.6,111,59.5,10.8,"Brooklyn",40.6675531110004,-73.8948005369996,0,7.7,7.7,7.5,7.9,7.9,7.6,7.9,8.4,6.4,6.1,6.8,7.5,7.3,7.2,7.4,7.9
"336","19K507","PERFORMING ARTS AND TECHNOLOGY HIGH SCHOOL",61,1149,2.5,NA,NA,NA,25,76,453,4.9,19.6,26,0.7,81.5,17.4,0,51.4,48.6,111,68.5,8.1,"Brooklyn",40.6675531110004,-73.8948005369996,0,8,7.9,7.8,8.2,7.6,8.3,8.2,8.8,6.5,6,7.1,7.7,7.4,7.4,7.7,8.2
"337","19K510","WORLD ACADEMY FOR TOTAL COMMUNITY HEALTH HIGH SCHOOL",68,1106,22,22,1,NA,24,72.6,380,4.2,14.7,13,2.1,81.1,14.2,1.3,36.8,63.2,95,24.2,8.4,"Brooklyn",40.6675531110004,-73.8948005369996,0,7.6,7,7,7.3,5.8,5.9,6.3,7.4,5.3,5.7,5.6,6.9,6.3,6.2,6.3,7.2
"338","19K583","MULTICULTURAL HIGH SCHOOL",29,887,44,44,1,88.6363636363636,24,73.4,406,94.6,1,0,0,0.2,99.8,0,49.8,50.2,3,NA,NA,"Brooklyn",40.6911439620004,-73.8684260569996,0,7.9,8.1,7.5,7.8,6.1,5.6,5.9,6.3,7.1,5.9,7,7.4,7,6.5,6.8,7.1
"339","19K615","TRANSIT TECH CAREER AND TECHNICAL EDUCATION HIGH SCHOOL",182,1193,138,164,1.18840579710145,10.9756097560976,27,62.3,1317,2.4,14.2,66,4.4,70.5,23.2,1.5,84.1,15.9,346,65.3,7.2,"Brooklyn",40.678230731,-73.8759730119996,0,7.4,7.2,7.1,7.3,6.2,6.6,6.8,7,5.3,5.4,5.9,6.7,6.3,6.4,6.6,7
"340","19K618","ACADEMY OF INNOVATIVE TECHNOLOGY",60,1096,2.5,NA,NA,NA,23,75.8,404,12.1,19.3,17,7.4,38.4,50.2,3,70.3,29.7,1,NA,NA,"Brooklyn",40.6911439620004,-73.8684260569996,0,7.6,7.9,7.7,8,6.6,6,6.9,7.3,6.4,6.2,7,7.5,6.9,6.7,7.2,7.6
"341","19K639","BROOKLYN LAB SCHOOL",57,1108,2.5,NA,NA,NA,25,76,397,15.4,19.4,21,1.5,30.7,65,1.3,58.4,41.6,1,NA,NA,"Brooklyn",40.6911439620004,-73.8684260569996,0,6.3,7.3,6.9,7,4.9,4.4,4.9,5.5,5.6,5.8,5.8,6.5,5.6,5.8,5.9,6.3
"342","19K659","CYPRESS HILLS COLLEGIATE PREPARATORY SCHOOL",51,1129,21,21,1,47.6190476190476,24,67.1,437,16.2,11.7,13,8.2,16.9,73.2,1.4,47.8,52.2,106,57.5,7.5,"Brooklyn",40.6911439620004,-73.8684260569996,0,7.7,7.7,7.3,7.7,5.7,5.4,6.2,6.9,6.6,6.6,7,7.4,6.7,6.6,6.8,7.3
"343","19K660","W. H. MAXWELL CAREER AND TECHNICAL EDUCATION HIGH SCHOOL",74,1102,46,46,1,NA,25,73.3,590,5.3,26.6,93,0.5,71.9,25.4,0.7,29.8,70.2,226,43.4,20.4,"Brooklyn",40.6742242140004,-73.8964535209997,0,7.1,7.1,7.1,7.4,7,7.2,7.3,8.2,5.8,5.7,6,6.8,6.6,6.7,6.8,7.4
"344","19K683","THE SCHOOL FOR CLASSICS: AN ACADEMY OF THINKERS, WRITERS AND PERFORMERS",38,1157,2.5,NA,NA,NA,26,81.9,311,9,17.7,34,10,54.3,34.7,0.6,37.6,62.4,NA,NA,NA,"Brooklyn",40.6706832500004,-73.8742174799996,0,8.3,8,7.9,8.1,7.3,7.5,8.4,8.5,6.7,6.2,6.9,7,7.4,7.3,7.7,7.9
"345","20K445","NEW UTRECHT HIGH SCHOOL",456,1272,174,271,1.55747126436782,35.0553505535055,28,59,3276,23,15.6,182,35.9,5.5,28,30.5,59.3,40.7,621,64.3,5.8,"Brooklyn",40.6134244940004,-74.0036537659997,0,7.8,6.9,6.9,7.2,7.8,7.4,8,8.2,7,6.3,7.1,7.5,7.6,6.9,7.4,7.7
"346","20K485","HIGH SCHOOL OF TELECOMMUNICATION ARTS AND TECHNOLOGY",238,1323,251,413,1.64541832669323,29.7820823244552,30,67.3,1280,4.9,19.4,46,19.2,9.5,54.1,16.8,53.5,46.5,297,75.8,6.1,"Brooklyn",40.6372457160004,-74.0238164729997,0,8.2,7.5,7.5,7.8,8.2,8.1,7.5,8.6,7,6.3,6.8,7.6,7.8,7.3,7.3,8
"347","20K490","FORT HAMILTON HIGH SCHOOL",694,1306,357,576,1.61344537815126,57.4652777777778,28,45.9,4275,21.2,12.8,270,30.3,5,30.2,34.2,53.4,46.6,986,65.9,14.2,"Brooklyn",40.6279133730004,-74.0399523379996,0,7.6,6.7,7,7.2,7.7,7.3,7.6,8.1,7.1,6.3,7,7.6,7.5,6.8,7.2,7.6
"348","20K505","FRANKLIN DELANO ROOSEVELT HIGH SCHOOL",385,1244,228,340,1.49122807017544,54.7058823529412,28,74.3,3108,39.4,10.8,186,44.2,9.4,27.3,18.6,58.4,41.6,859,52.7,22.5,"Brooklyn",40.6202633730004,-73.9820109999997,0,7.7,7,7.1,7.3,7.6,8,7.8,8.2,6.8,5.6,6.5,7.1,7.3,6.9,7.1,7.5
"349","20K609","THE URBAN ASSEMBLY SCHOOL FOR CRIMINAL JUSTICE",NA,NA,2.5,NA,NA,NA,13,82.7,374,15.5,17.1,6,35,33.7,21.9,9.1,0,100,NA,NA,NA,"Brooklyn",40.6349080950004,-73.9815190769996,NA,NA,NA,NA,NA,NA,NA,NA,NA,NA,NA,NA,NA,NA,NA,NA,NA
"350","20K658","FRANKLIN DELANO ROOSEVELT YABC",18,1131,2.5,NA,NA,NA,NA,NA,NA,NA,NA,NA,NA,NA,NA,NA,NA,NA,NA,NA,NA,NA,NA,NA,NA,NA,NA,NA,NA,NA,NA,NA,NA,NA,NA,NA,NA,NA,NA,NA,NA
"351","21K337","INTERNATIONAL HIGH SCHOOL AT LAFAYETTE",54,1026,2.5,NA,NA,NA,17,73.8,343,89.2,0.3,1,42,14,21,22.7,58.9,41.1,71,43.7,9.9,"Brooklyn",40.5935938110004,-73.9847292319997,0,8.3,7.8,7.4,7.6,7.5,5.8,6.6,6.8,7.6,7,7.1,7.8,7.8,6.8,7,7.4
"352","21K344","RACHEL CARSON HIGH SCHOOL FOR COASTAL STUDIES",54,1237,34,64,1.88235294117647,NA,26,70.4,481,11,16,4,12.3,24.1,25.8,37.6,53.6,46.4,113,62.8,7.1,"Brooklyn",40.5821161500004,-73.9728944919996,0,7.7,7.5,7.3,7.7,6.5,5.3,6.1,6.8,6.3,6.1,6.1,7.1,6.9,6.3,6.5,7.2
"353","21K348","HIGH SCHOOL OF SPORTS MANAGEMENT",39,1164,10,10,1,NA,26,69.2,370,2.4,14.6,11,2.7,68.4,23,5.9,88.9,11.1,65,75.4,9.2,"Brooklyn",40.5935938110004,-73.9847292319997,0,7.8,7.3,7.3,7.7,7.3,7.2,7.3,7.9,6,6.4,6.9,7.6,7,7,7.2,7.8
"354","21K410","ABRAHAM LINCOLN HIGH SCHOOL",475,1226,133,193,1.45112781954887,9.32642487046632,28,53.3,2595,16.7,11.5,126,19.3,35.1,20.1,25.1,56.4,43.6,620,57.1,16,"Brooklyn",40.5823083630004,-73.9674657469997,0,7.4,6.6,6.7,6.9,7.1,6.2,6.7,7.2,6,5.8,6.2,7,6.8,6.2,6.5,7
"355","21K412/21K411","ABRAHAM LINCOLN YABC/LEARNING TO WORK GED AT ABRAHAM LINCOLN",NA,NA,2.5,NA,NA,NA,NA,NA,NA,NA,NA,NA,NA,NA,NA,NA,NA,NA,NA,NA,NA,NA,NA,NA,NA,NA,NA,NA,NA,NA,NA,NA,NA,NA,NA,NA,NA,NA,NA,NA,NA
"356","21K468","KINGSBOROUGH EARLY COLLEGE SCHOOL",NA,NA,2.5,NA,NA,NA,25,70,472,2.8,15.7,0,7.2,25,22.7,44.7,57.8,42.2,NA,NA,NA,"Brooklyn",40.5935938110004,-73.9847292319997,NA,NA,NA,NA,NA,NA,NA,NA,NA,NA,NA,NA,NA,NA,NA,NA,NA
"357","21K525","EDWARD R. MURROW HIGH SCHOOL",727,1431,397,577,1.45340050377834,53.2062391681109,30,28.5,4022,9.1,14.1,249,27.1,24.1,17.6,30.8,42.4,57.6,938,74.8,5.9,"Brooklyn",40.6205043580004,-73.9592339329997,0,8.1,7.4,7.6,7.6,7.5,7.3,7.7,8,7,6,6.8,7.3,7.5,6.9,7.4,7.6
"358","21K540","JOHN DEWEY HIGH SCHOOL",448,1262,232,370,1.5948275862069,41.6216216216216,28,58.7,2168,19.6,8.7,83,39.1,30.6,19.1,10.8,51.5,48.5,603,57.5,12.6,"Brooklyn",40.5892380980005,-73.9817465239997,0,7,6.7,6.7,7,6.4,5.4,6.5,6.7,6.4,5.6,6.5,7,6.6,5.9,6.6,6.9
"359","21K559","LIFE ACADEMY HIGH SCHOOL FOR FILM AND MUSIC",40,1124,2.5,NA,NA,NA,24,72,251,4.8,20.3,6,4.8,44.6,29.9,20.3,51,49,1,NA,NA,"Brooklyn",40.5935938110004,-73.9847292319997,0,8.1,7.3,7.4,7.4,6,4.3,5.4,6.8,6.2,6.4,6.4,7,6.8,6,6.4,7.1
"360","21K572","EXPEDITIONARY LEARNING SCHOOL FOR COMMUNITY LEADERS",40,1079,2.5,NA,NA,NA,21,64.4,226,21.7,16.4,3,19.5,19.5,41.2,19.5,51.3,48.7,3,NA,NA,"Brooklyn",40.5935938110004,-73.9847292319997,0,8.5,8.1,7.7,8.2,7.4,7.2,7.4,8.4,6.4,5.9,6.1,6.8,7.4,7.1,7.1,7.8
"361","21K620","WILLIAM E. GRADY CAREER AND TECHNICAL EDUCATION HIGH SCHOOL",95,1184,2.5,NA,NA,NA,26,74.3,956,3.1,22.7,100,3.2,74.9,14,6.9,78,22,281,42.3,21.4,"Brooklyn",40.5825480380004,-73.9637162209996,0,7.1,7.2,7.1,7.2,8.3,8.3,8.4,8.8,5.5,5.5,6.2,6.9,7,7,7.2,7.6
"362","21K690","BROOKLYN STUDIO SECONDARY SCHOOL",119,1313,39,43,1.1025641025641,30.2325581395349,27,49.9,876,8.4,18.7,3,12.8,7.2,23.1,56.5,50.1,49.9,140,67.9,15,"Brooklyn",40.604877,-73.9944171539997,NA,NA,NA,NA,NA,NA,NA,NA,NA,NA,NA,NA,NA,NA,NA,NA,NA
"363","21K728","LIBERATION DIPLOMA PLUS",10,1153,2.5,NA,NA,NA,15,82.3,191,1.6,6.3,1,2.6,44,37.7,15.2,41.9,58.1,65,26.2,12.3,NA,NA,NA,0,9,8.5,8.4,8.9,7.1,5.7,6.7,7.5,7.7,6.3,7.3,7.8,8,6.8,7.5,8
"364","22K405","MIDWOOD HIGH SCHOOL",824,1473,745,1223,1.64161073825503,61.9787408013083,32,41.2,3842,3.7,5.2,68,31.7,35.2,11.7,21.2,45.3,54.7,872,86.8,1.6,"Brooklyn",40.6333354940004,-73.9529160639996,0,7.4,6.5,6.9,7.2,7.4,7.1,7.3,7.8,6.5,5.4,6.2,7.1,7.1,6.3,6.8,7.4
"365","22K425","JAMES MADISON HIGH SCHOOL",518,1350,323,463,1.43343653250774,40.6047516198704,30,58.3,3076,13.2,12.4,118,20.8,17.9,14.5,46.4,54.4,45.6,1076,66.3,13.8,"Brooklyn",40.6097584810004,-73.9484518369997,0,8,7.5,7.7,7.9,8.2,7.8,8,8.4,6.5,6,6.7,7.3,7.6,7.1,7.5,7.9
"366","22K495","SHEEPSHEAD BAY HIGH SCHOOL",236,1145,37,59,1.59459459459459,45.7627118644068,26,53.1,1928,21.7,13.1,122,12,61.8,15.8,10.1,53.2,46.8,537,57.9,21.8,NA,NA,NA,0,7.4,6.9,7.1,7.2,6.6,6.4,7,7.2,5.7,5.5,6.4,6.9,6.6,6.3,6.8,7.1
"367","22K535","LEON M. GOLDSTEIN HIGH SCHOOL FOR THE SCIENCES",259,1627,367,575,1.56675749318801,66.4347826086957,32,29,1022,0.5,7.3,0,13.5,9.4,10.8,65.6,41.2,58.8,253,96.4,2.4,"Brooklyn",40.580847136,-73.9360885689997,0,8.8,7.2,7.6,7.6,8.1,6.4,6.7,7.8,7.6,6.3,7.1,7.6,8.2,6.6,7.1,7.7
"368","22K555","BROOKLYN COLLEGE ACADEMY",131,1352,2.5,NA,NA,NA,26,48.4,630,0.2,1.7,0,5.9,77.9,12.4,2.7,36.3,63.7,120,95.8,0,"Brooklyn",40.6492006270004,-73.9716946209996,NA,NA,NA,NA,NA,NA,NA,NA,NA,NA,NA,NA,NA,NA,NA,NA,NA
"369","23K493","BROOKLYN COLLEGIATE: A COLLEGE BOARD SCHOOL",60,1185,15,16,1.06666666666667,NA,25,74.5,580,1.6,12.1,27,1.9,88.1,8.3,0.5,50.7,49.3,70,62.9,7.1,"Brooklyn",40.6741373830004,-73.9134944909997,NA,NA,NA,NA,NA,NA,NA,NA,NA,NA,NA,NA,NA,NA,NA,NA,NA
"370","23K514","FREDERICK DOUGLASS ACADEMY VII HIGH SCHOOL",55,1091,39,40,1.02564102564103,NA,23,66.9,365,1.4,20.3,21,0.8,88.5,10.4,0,48.5,51.5,92,70.7,6.5,"Brooklyn",40.6658109120005,-73.9116996449997,0,7.9,7.6,7.5,7.8,6.9,6.5,6.5,7.2,6.2,6.1,6.7,7.5,7,6.8,6.9,7.5
"371","23K643","BROOKLYN DEMOCRACY ACADEMY",11,1018,2.5,NA,NA,NA,NA,62.3,205,2.4,16.1,4,1.5,85.9,11.7,0.5,47.8,52.2,97,26.8,11.3,NA,NA,NA,0,9.1,8.5,8.2,9,7.6,7.7,8.4,8.7,7.9,6.9,7.7,8.3,8.2,7.7,8.1,8.7
"372","23K646","ASPIRATIONS DIPLOMA PLUS HIGH SCHOOL",7,993,2.5,NA,NA,NA,19,72.5,275,2.2,7.3,1,1.5,77.8,20,0.4,46.2,53.8,117,13.7,29.1,NA,NA,NA,0,8.7,7.7,7.8,8.4,6,4.7,6.3,6.8,7.3,6.4,7.2,7.7,7.3,6.3,7.1,7.6
"373","23K647","METROPOLITAN DIPLOMA PLUS HIGH SCHOOL",17,1028,2.5,NA,NA,NA,21,72.1,181,1.1,8.8,1,0,86.2,13.8,0,48.6,51.4,97,22.7,16.5,NA,NA,NA,0,8.6,8.3,8,8.6,6.3,5.4,6.8,7.5,7.4,7,7.5,8.1,7.5,6.9,7.4,8
"374","23K697","TEACHERS PREPARATORY HIGH SCHOOL",69,1196,33,37,1.12121212121212,NA,25,69.8,566,1.8,11,35,0.7,84.8,13.1,1.2,34.1,65.9,99,72.7,3,"Brooklyn",40.6658109120005,-73.9116996449997,NA,NA,NA,NA,NA,NA,NA,NA,NA,NA,NA,NA,NA,NA,NA,NA,NA
"375","24Q264","ACADEMY OF FINANCE AND ENTERPRISE",89,1280,95,137,1.44210526315789,29.1970802919708,24,62.8,420,7.9,9.8,2,17.9,9.8,56.4,15.2,49.3,50.7,90,90,2.2,"Queens",40.7450935190004,-73.9368138979996,0,8.9,7.9,7.8,8.2,7.1,5.9,6.1,7.2,7.3,6.5,6.9,7.9,7.8,6.8,6.9,7.8
"376","24Q267","HIGH SCHOOL OF APPLIED COMMUNICATION",39,1219,46,48,1.04347826086957,NA,22,66.9,388,10.3,16.2,2,13.9,12.9,57.2,16,43.8,56.2,101,80.2,3,"Queens",40.7450935190004,-73.9368138979996,0,8.5,7.9,7.8,7.9,8.6,7.9,8.5,8.9,6.8,6.2,6.5,7.3,8,7.4,7.6,8
"377","24Q293","CIVIC LEADERSHIP ACADEMY",69,1240,2.5,NA,NA,NA,23,71,449,9.1,18.5,4,7.8,9.1,79.3,3.3,44.5,55.5,NA,NA,NA,"Queens",40.7433028730004,-73.8705749769996,0,8.7,8.1,8,8.2,7,5.5,5.8,7.1,7.3,6.7,7.4,7.8,7.7,6.8,7.1,7.7
"378","24Q296","PAN AMERICAN INTERNATIONAL HIGH SCHOOL",55,951,2.5,NA,NA,NA,20,78.3,366,91.3,0.8,0,0,0,100,0,47.8,52.2,1,NA,NA,"Queens",40.7433028730004,-73.8705749769996,0,8.8,8.7,8.2,8.4,6.4,6.1,6.9,6.8,7.3,6.1,7,7.6,7.5,7,7.4,7.6
"379","24Q299","BARD HIGH SCHOOL EARLY COLLEGE II",155,1663,2.5,NA,NA,NA,20,39.2,631,0.3,0,NA,32,16.2,21.2,30.3,39.3,60.7,50,96,0,"Queens",40.7450935190004,-73.9368138979996,0,8.9,8,7.9,8.5,8.6,6.2,7.3,8.2,7.9,6.8,7.4,8.4,8.5,7,7.5,8.4
"380","24Q455","NEWTOWN HIGH SCHOOL",320,1203,174,200,1.14942528735632,58.5,27,56.2,2572,30,10.3,112,24.6,9.3,60.3,5.3,57.5,42.5,773,49.4,16.2,"Queens",40.7412052000004,-73.8747298839996,0,7.4,7.1,7.1,7.2,7.2,7,7.3,7.8,6.4,5.9,6.4,7.1,7,6.6,6.9,7.4
"381","24Q457","YOUNG ADULT BOROUGH CENTER AT ARTS AND BUSINESS HS",NA,NA,2.5,NA,NA,NA,NA,NA,NA,NA,NA,NA,NA,NA,NA,NA,NA,NA,NA,NA,NA,NA,NA,NA,NA,NA,NA,NA,NA,NA,NA,NA,NA,NA,NA,NA,NA,NA,NA,NA,NA
"382","24Q485","GROVER CLEVELAND HIGH SCHOOL",241,1211,200,274,1.37,40.8759124087591,27,41.4,2069,21.6,12.7,122,9.1,4.4,63.5,22.7,55,45,703,54.2,17.1,"Queens",40.7112221950004,-73.9086521299997,0,7.6,7.4,7.2,7.5,7.9,7.8,8,8.4,6.4,5.7,6.5,7.2,7.3,6.9,7.2,7.7
"383","24Q520","MIDDLE COLLEGE HIGH SCHOOL AT LAGUARDIA COMMUNITY COLLEGE",58,1177,2.5,NA,NA,NA,18,58.9,497,0.2,13.1,0,7.8,9.5,71.4,11.3,52.9,47.1,94,70.2,10.6,"Queens",40.7441495360005,-73.9336267409997,0,8.4,7.4,7.3,7.5,7.2,5.2,5.9,6.2,7.3,6.1,6.8,7.4,7.6,6.2,6.6,7.1
"384","24Q530","INTERNATIONAL HIGH SCHOOL AT LAGUARDIA COMMUNITY COLLEGE",69,1064,2.5,NA,NA,NA,17,75.7,493,76.5,0,NA,43,2,44,10.3,46,54,124,48.4,8.1,"Queens",40.7441495360005,-73.9336267409997,0,8.9,8,7.9,8.4,8.8,6.4,7.8,8.5,8,6.9,7.3,7.8,8.6,7.1,7.7,8.2
"385","24Q550","HIGH SCHOOL FOR ARTS AND BUSINESS",138,1174,198,320,1.61616161616162,22.8125,27,69.6,828,13.3,12.2,7,9.1,8.3,79.2,3,43.1,56.9,187,67.4,9.1,"Queens",40.7374181700004,-73.8533057299996,0,8.5,8,7.7,7.9,7.4,6.7,7.3,7.8,7,5.5,6.8,7.4,7.6,6.8,7.3,7.7
"386","24Q560","ROBERT F. WAGNER, JR. SECONDARY SCHOOL FOR ARTS AND TECHNOLOGY",80,1330,2.5,NA,NA,NA,26,60.5,601,3.8,12.3,2,20.8,6.2,62.4,10.5,46.6,53.4,95,62.1,4.2,"Queens",40.7422635150004,-73.9368761209997,NA,NA,NA,NA,NA,NA,NA,NA,NA,NA,NA,NA,NA,NA,NA,NA,NA
"387","24Q600","QUEENS VOCATIONAL AND TECHNICAL HIGH SCHOOL",155,1270,27,27,1,74.0740740740741,28,71.9,1368,6.4,13.7,62,10.2,6.9,74.2,8.7,60.3,39.7,271,70.8,10.7,"Queens",40.7421886940004,-73.9282432919996,0,8.2,7,7,7.3,8.6,8.1,9,8.9,6.6,5.8,6.3,7.2,7.8,6.9,7.4,7.8
"388","24Q610","AVIATION CAREER & TECHNICAL EDUCATION HIGH SCHOOL",396,1364,130,140,1.07692307692308,43.5714285714286,28,61.2,2201,3.2,5.3,49,27.1,6.8,55.3,10.1,85.3,14.7,368,74.5,1.4,"Queens",40.743593644,-73.9290778649997,0,8.4,7.1,7.1,7.7,8.5,8.1,8.3,8.7,6.9,5.8,6.4,7.3,7.9,7,7.3,7.9
"389","24Q744","VOYAGES PREPARATORY",NA,NA,2.5,NA,NA,NA,NA,59.1,248,3.6,6,0,8.1,23,61.7,6.9,50.4,49.6,85,11.8,11.8,NA,NA,NA,0,9.3,8.4,8.2,8.9,7.3,7,7.8,8.4,9.3,9.3,9,9.2,8.6,8.2,8.3,8.8
"390","25Q252","QUEENS SCHOOL OF INQUIRY, THE",58,1396,2.5,NA,NA,NA,25,41.3,587,2.7,11.8,0,40.2,17,24.2,18.1,46.7,53.3,NA,NA,NA,"Queens",40.7245229840004,-73.8094279899997,NA,NA,NA,NA,NA,NA,NA,NA,NA,NA,NA,NA,NA,NA,NA,NA,NA
"391","25Q263","FLUSHING INTERNATIONAL HIGH SCHOOL",45,1049,2.5,NA,NA,NA,19,84.1,422,88.6,0.7,0,64.5,1.2,32.7,1.7,57.3,42.7,86,59.3,10.5,"Queens",40.7604141700004,-73.8183762779997,0,8,7.4,7.2,7.6,8.3,7.5,8.3,8.9,7.4,7,7.2,7.5,7.9,7.3,7.6,8
"392","25Q281","EASTsWEST SCHOOL OF INTERNATIONAL STUDIES",59,1271,2.5,NA,NA,NA,29,53.3,616,13.6,9.4,1,62.7,14.8,17.9,3.4,54.1,45.9,75,85.3,0,"Queens",40.7493028050004,-73.8218081059997,NA,NA,NA,NA,NA,NA,NA,NA,NA,NA,NA,NA,NA,NA,NA,NA,NA
"393","25Q285","WORLD JOURNALISM PREPARATORY: A COLLEGE BOARD SCHOOL",63,1441,65,87,1.33846153846154,20.6896551724138,25,33.5,595,0.8,17.8,0,19.3,8.4,20.3,51.6,42.2,57.8,82,86.6,1.2,"Queens",40.7651232730004,-73.7900596759997,NA,NA,NA,NA,NA,NA,NA,NA,NA,NA,NA,NA,NA,NA,NA,NA,NA
"394","25Q425","JOHN BOWNE HIGH SCHOOL",558,1243,176,229,1.30113636363636,50.6550218340611,29,68.2,3660,24.7,9.8,162,34.3,19.2,40.7,5.2,49.2,50.8,688,56.1,20.6,"Queens",40.7386972030004,-73.8247948209997,0,8.2,7.8,7.8,8,6.3,6,6.2,6.6,6.8,5.8,6.5,7.1,7.1,6.5,6.8,7.3
"395","25Q460","FLUSHING HIGH SCHOOL",347,1216,324,424,1.30864197530864,32.0754716981132,30,67.6,3113,20,11.7,137,19.9,26.5,49.8,3.2,55.8,44.2,588,56.5,20.7,"Queens",40.7652434710005,-73.8278552819996,0,6.8,6.8,6.8,7.1,6.7,6.7,7.1,7.4,5.6,5.4,6.1,6.8,6.4,6.3,6.7,7.1
"396","25Q467","FLUSHING YABC",9,1095,2.5,NA,NA,NA,NA,NA,NA,NA,NA,NA,NA,NA,NA,NA,NA,NA,NA,NA,NA,NA,NA,NA,NA,NA,NA,NA,NA,NA,NA,NA,NA,NA,NA,NA,NA,NA,NA,NA,NA
"397","25Q525","TOWNSEND HARRIS HIGH SCHOOL",278,1910,613,796,1.29853181076672,78.5175879396985,29,29.2,1140,0,0.2,0,55.5,5.9,12.9,24.6,28.9,71.1,278,100,0,"Queens",40.7344084100004,-73.8214174829997,0,8.9,7.9,7.9,8.2,7.8,6.2,6.4,7.6,7.8,6,7.1,8.1,8.2,6.7,7.2,8
"398","25Q540","QUEENS ACADEMY HIGH SCHOOL",17,1168,2.5,NA,NA,NA,24,NA,NA,NA,NA,NA,NA,NA,NA,NA,NA,NA,141,22,10.6,NA,NA,NA,0,8.3,7.7,7.3,7.8,6.9,6.4,6.6,7.2,6.9,5.8,6.5,7.2,7.4,6.6,6.8,7.4
"399","25Q670","ROBERT F. KENNEDY COMMUNITY HIGH SCHOOL",99,1330,77,112,1.45454545454545,38.3928571428571,30,46.4,721,7.5,18.4,7,28.4,11.5,35.4,24.5,53.8,46.2,159,56.6,8.2,"Queens",40.7256031610004,-73.8107211469996,0,8.1,7.4,7.2,7.3,8,7.5,7.9,8.1,7.1,6.4,7.1,7.5,7.7,7.1,7.4,7.6
"400","25Q792","NORTH QUEENS COMMUNITY HIGH SCHOOL",7,1177,2.5,NA,NA,NA,20,54.1,198,1.5,11.6,1,10.1,42.4,33.3,14.1,45.5,54.5,62,19.4,11.3,NA,NA,NA,0,9.2,8.8,8.5,8.9,7.3,7.1,7.5,8.2,7.5,7.1,7.6,8.4,8,7.7,7.9,8.5
"401","26Q415","BENJAMIN N. CARDOZO HIGH SCHOOL",888,1514,676,1145,1.69378698224852,69.5196506550218,31,37.3,3912,6.1,11.5,173,45.7,18.4,18.6,16.8,47.4,52.6,981,80.1,4.5,"Queens",40.7523924240004,-73.7560833579997,0,7.4,6.3,6.8,6.9,7.2,7.2,7.5,7.9,6.5,5.5,6.3,7,7,6.3,6.9,7.3
"402","26Q430","FRANCIS LEWIS HIGH SCHOOL",934,1474,697,1033,1.48206599713056,56.4375605033882,30,51.6,4152,13.2,12.3,214,51.9,8.3,24.1,15.5,49.2,50.8,1209,74.2,5.1,"Queens",40.7405557140004,-73.7928481459996,0,8.8,8.1,8.2,8.4,8.3,7.9,8.3,8.5,8.8,7.8,8.5,9,8.6,8,8.3,8.6
"403","26Q435","MARTIN VAN BUREN HIGH SCHOOL",334,1172,71,101,1.42253521126761,14.8514851485149,27,38.2,2390,9.9,11.5,138,24.1,56.4,15.1,2.9,54.3,45.7,755,62.8,8.5,"Queens",40.7328171090004,-73.7396504129997,0,6.3,6.4,6.5,6.7,5.5,5.2,4.9,5.5,5,5.1,5.4,6.3,5.6,5.6,5.6,6.2
"404","26Q495","BAYSIDE HIGH SCHOOL",708,1449,480,686,1.42916666666667,60.2040816326531,32,52.4,3308,5.7,10.6,119,45.2,12.7,22.3,19.6,49.4,50.6,902,80.2,6.4,"Queens",40.7718672420005,-73.7803869519997,0,7.9,6.8,7.1,7,7.9,6.6,7.2,7.6,7.1,5.9,6.9,7.6,7.6,6.4,7,7.4
"405","26Q566","QUEENS HIGH SCHOOL OF TEACHING, LIBERAL ARTS AND THE SCIENCES",175,1279,2.5,NA,NA,NA,29,39.5,1196,2.5,13.9,18,23.8,46.3,16.8,12.3,45.8,54.2,281,83.6,3.2,"Queens",40.7449043610005,-73.7269096419997,0,8.2,7.3,7.5,7.3,6.1,6,6.3,6.8,6.4,6,6.2,7,6.9,6.4,6.7,7
"406","27Q260","FREDERICK DOUGLASS ACADEMY VI HIGH SCHOOL",87,1145,2.5,NA,NA,NA,25,57.1,445,4,13.9,23,3.8,67,27,1.3,52.6,47.4,95,71.6,4.2,"Queens",40.6019893360005,-73.7628343229997,0,7.3,6.9,7,7.3,5.5,5.2,5.5,6.3,6,5.6,6.2,7.3,6.3,5.9,6.2,6.9
"407","27Q262","CHANNEL VIEW SCHOOL FOR RESEARCH",74,1252,43,69,1.6046511627907,26.0869565217391,26,58,636,1.3,10.5,12,5.7,55.2,27.5,11.2,51.1,48.9,71,94.4,0,"Queens",40.5860071870004,-73.8230894439997,NA,NA,NA,NA,NA,NA,NA,NA,NA,NA,NA,NA,NA,NA,NA,NA,NA
"408","27Q302","QUEENS HIGH SCHOOL FOR INFORMATION, RESEARCH, AND TECHNOLOGY",44,1156,2.5,NA,NA,NA,23,75.7,310,10.6,16.1,14,4.2,60.3,30,4.5,54.5,45.5,2,NA,NA,"Queens",40.6019893360005,-73.7628343229997,0,7.9,7.1,7.2,7.4,6.5,6.2,6.8,7.3,6.3,6.1,6.5,7.1,6.9,6.5,6.8,7.3
"409","27Q308","ROBERT H. GODDARD HIGH SCHOOL OF COMMUNICATION ARTS AND TECHNOLOGY",93,1265,2.5,NA,NA,NA,30,66.4,578,3.6,15.9,45,26.8,7.6,42.6,21.8,48.1,51.9,NA,NA,NA,"Queens",40.671769478,-73.8449777389997,0,7.9,7.4,7.4,7.8,7.2,7.3,7.5,8,6.6,6,6.5,7.3,7.2,6.9,7.1,7.7
"410","27Q309","ACADEMY OF MEDICAL TECHNOLOGY: A COLLEGE BOARD SCHOOL",36,1094,2.5,NA,NA,NA,23,64.2,527,10.6,14,20,9.1,52.6,34.2,3.2,43.8,56.2,NA,NA,NA,"Queens",40.6019893360005,-73.7628343229997,NA,NA,NA,NA,NA,NA,NA,NA,NA,NA,NA,NA,NA,NA,NA,NA,NA
"411","27Q323","SCHOLARS' ACADEMY",89,1532,55,121,2.2,47.1074380165289,26,35.9,1062,0,1,0,22,19.2,15.9,41.6,43.9,56.1,NA,NA,NA,"Queens",40.5841313740004,-73.8256812119997,NA,NA,NA,NA,NA,NA,NA,NA,NA,NA,NA,NA,NA,NA,NA,NA,NA
"412","27Q400","AUGUST MARTIN HIGH SCHOOL",101,1108,19,28,1.47368421052632,NA,29,65.1,1029,4.3,16.5,85,6.2,79.9,11.5,1.7,55.2,44.8,288,53.5,16.7,"Queens",40.6755268090004,-73.7834325129996,0,7.4,7,6.9,7.2,5.4,6,6.1,6.2,5,5,5.4,6.4,5.6,5.8,6,6.5
